[
  {"address":"경상북도 구미시 신시로 78, 1층 (송정동)","location":{"x":128.3396478,"y":36.1147879},"name":"21세기약국","phone":"054-452-2121"},
  {"address":"경상남도 통영시 안개로 9, 102호 (무전동)","location":{"x":128.4293861,"y":34.8575902},"name":"24시약국","phone":"055-642-4006"},
  {"address":"전라남도 나주시 전력로 2 이화플라자 1층","location":{"x":126.7853877,"y":35.0215765},"name":"365 우리약국","phone":"061-333-8228"},
  {"address":"서울특별시 강남구 강남대로 지하396, 강남역 103-104호 (역삼동)","location":{"x":127.027619,"y":37.497952},"name":"365강남역약국","phone":"02-554-5628"},
  {"address":"경기도 수원시 장안구 경수대로 979, 2층 (송죽동)","location":{"x":127.0037112,"y":37.3045022},"name":"365구름약국","phone":"031-309-8117"},
  {"address":"경기도 평택시 중앙로 2 (통복동)","location":{"x":127.0836011,"y":36.9953709},"name":"365녹십자약국","phone":"031-652-3307"},
  {"address":"경기도 하남시 미사강변중앙로 226, 우성르보아파크 1층 112호 (망월동)","location":{"x":127.1888467,"y":37.5667522},"name":"365약국","phone":"031-794-0367"},
  {"address":"인천광역시 계양구 오조산로 1, 거승프라자 107호 (작전동)","location":{"x":126.737813,"y":37.5309437},"name":"365약국","phone":"032-547-0365"},
  {"address":"부산광역시 연제구 반송로 30, 석산빌딩 1층 일부호 (연산동)","location":{"x":129.0842078,"y":35.1876873},"name":"365연산온누리약국","phone":"051-852-3574"},
  {"address":"서울특별시 영등포구 영중로 119, 리마크빌 영등포 2층 204-2호 (영등포동8가)","location":{"x":126.9047058,"y":37.5267921},"name":"365열린약국","phone":"02-2633-2800"},
  {"address":"서울특별시 구로구 남부순환로97길 3, KS프리미어빌딩 105호 (개봉동)","location":{"x":126.8582782,"y":37.4941054},"name":"365열린약국","phone":"02-3666-0784"},
  {"address":"서울특별시 강남구 삼성로 14, 2층 216-2호 (개포동, 개포자이 프레지던스)","location":{"x":127.0714351,"y":37.4855370999999},"name":"365열린약국","phone":"02-459-2005"},
  {"address":"서울특별시 강서구 공항대로41길 52, 버들빌딩 1층 (등촌동)","location":{"x":126.8462313,"y":37.5600424},"name":"365열린약국","phone":"02-3661-3650"},
  {"address":"전라남도 순천시 연향3로 11, 1층 1A 4호~6호 (연향동)","location":{"x":127.5170629,"y":34.9510318},"name":"365일연향대형약국","phone":"061-746-3651"},
  {"address":"서울특별시 동대문구 전농로 60-1, 1층 (답십리동)","location":{"x":127.0574083,"y":37.5702749},"name":"365종로약국","phone":"02-2215-8704"},
  {"address":"경상남도 창원시 마산합포구 해안대로 7","location":{"x":128.5597754,"y":35.1807917},"name":"365청솔약국","phone":"055-242-9223"},
  {"address":"인천광역시 남동구 논고개로123번길 35, 칼리오페 1층 A동 126호 (논현동)","location":{"x":126.7220846,"y":37.4015083},"name":"365행복약국","phone":"032-429-8184"},
  {"address":"서울특별시 동대문구 회기로 193, 1층 (휘경동)","location":{"x":127.0574609,"y":37.5902038},"name":"365회기역약국","phone":"02-6212-1494"},
  {"address":"서울특별시 강북구 도봉로 339, 1층 (수유동)","location":{"x":127.0254924,"y":37.6382492},"name":"7번약국","phone":"02-904-7773"},
  {"address":"서울특별시 강북구 도봉로 256, 덕산빌딩 1층 1호 (미아동)","location":{"x":127.0244995,"y":37.6313584},"name":"가나안약국","phone":"02-982-9995"},
  {"address":"울산광역시 남구 삼산로 159-1 (달동)","location":{"x":129.3246498,"y":35.5370149},"name":"가람약국","phone":"052-257-7584"},
  {"address":"인천광역시 남동구 경원대로 971 (간석동, 홈플러스 2층일부)","location":{"x":126.6890686,"y":37.4695239},"name":"간석온누리약국","phone":"032-868-6682"},
  {"address":"서울특별시 강남구 도곡로 523, 1층 (대치동)","location":{"x":127.063734,"y":37.5001569},"name":"강남새천년온누리약국","phone":"02-552-3524"},
  {"address":"경기도 용인시 기흥구 신구로12번길 19 (구갈동)","location":{"x":127.1113471,"y":37.2741008},"name":"강남약국","phone":"031-285-9901"},
  {"address":"경기도 용인시 기흥구 신구로12번길 11-1 (구갈동)","location":{"x":127.1105615,"y":37.2736356},"name":"강남효약국","phone":"031-286-3379"},
  {"address":"대구광역시 중구 중앙대로 309, 1층 (남산동)","location":{"x":128.5922232,"y":35.8608632},"name":"갤러리약국","phone":"053-256-3651"},
  {"address":"서울특별시 강남구 학동로20길 55 106호","location":{"x":127.0272543,"y":37.5101331},"name":"갤러리약국","phone":"02-6227-5578"},
  {"address":"경상남도 거제시 거제중앙로 1916-1","location":{"x":128.622975,"y":34.8891609},"name":"거제프라자약국","phone":"055-638-1351"},
  {"address":"인천광역시 계양구 봉오대로 785, (주)이마트 (작전동)","location":{"x":126.7368992,"y":37.5310482999999},"name":"건강약국","phone":"032-548-2095"},
  {"address":"서울특별시 중랑구 면목로 421","location":{"x":127.0870515,"y":37.5896475},"name":"건명약국","phone":"02-435-3900"},
  {"address":"경기도 안양시 동안구 인덕원로24번길 56 (관양동)","location":{"x":126.9751986,"y":37.3998588},"name":"건인약국","phone":"031-423-1185"},
  {"address":"경기도 광주시 고불로 58 (중대동)","location":{"x":127.23153,"y":37.3931304},"name":"경기약국","phone":"031-765-8562"},
  {"address":"부산광역시 사상구 사상로 194, 괘법동 메디컬센터 1층 (괘법동)","location":{"x":128.9908874,"y":35.16646},"name":"경남약국","phone":"051-325-3355"},
  {"address":"대구광역시 중구 국채보상로 603 (문화동)","location":{"x":128.5973403,"y":35.8712616},"name":"경희약국","phone":"053-253-4467"},
  {"address":"서울특별시 마포구 신촌로 지하 90, 신촌역 B1 240-107호 (노고산동)","location":{"x":126.9364998,"y":37.5550592},"name":"고래약국","phone":"02-333-7967"},
  {"address":"인천광역시 계양구 경명대로 1074, 삼환1빌딩 102호 (계산동)","location":{"x":126.7260223,"y":37.5431149},"name":"고려원약국","phone":"032-541-0248"},
  {"address":"경상남도 거제시 서문로5길 6, 104호 (고현동)","location":{"x":128.6210349,"y":34.8893193},"name":"고현서울약국","phone":"055-636-8539"},
  {"address":"서울특별시 서초구 방배로 226, 3층 303호 (방배동)","location":{"x":126.9906826,"y":37.4934052},"name":"곰돌이스타약국","phone":"02-595-8795"},
  {"address":"경기도 평택시 포승읍 평택항로 180, 한샘빌딩 1층 103,104호","location":{"x":126.8432415,"y":36.9749185},"name":"공단약국","phone":"031-683-3567"},
  {"address":"경기도 과천시 별양로 142, 111호 (별양동)","location":{"x":126.9986668,"y":37.4282688},"name":"과천자이약국","phone":"02-502-5455"},
  {"address":"경기도 광주시 중앙로 101, 클리닉빌딩 제1층 103,104호 (경안동)","location":{"x":127.2584153,"y":37.4088049},"name":"광주태평양약국","phone":"031-798-6240"},
  {"address":"서울특별시 광진구 천호대로 566, 동우빌딩 1층 (능동)","location":{"x":127.0806204,"y":37.5563402},"name":"광진365플러스약국","phone":"02-455-3655"},
  {"address":"서울특별시 광진구 자양로 164, 하림빌딩 1층 (구의동)","location":{"x":127.0843878,"y":37.5422975},"name":"광진제일큰약국","phone":"02-6215-2225"},
  {"address":"서울특별시 구로구 경인로 193  (오류동)","location":{"x":126.8379393,"y":37.4907775},"name":"구로종로약국","phone":"02-2688-0155"},
  {"address":"경기도 안산시 단원구 화정천서로3길 7, (선부동)","location":{"x":126.8171025,"y":37.3431393},"name":"구민사약국","phone":"031-403-2913"},
  {"address":"강원특별자치도 강릉시 구정면 범일로 444 (구정면)","location":{"x":128.8791262,"y":37.7272857},"name":"구정열린약국","phone":"033-644-7133"},
  {"address":"충청북도 청주시 청원구 율량로202번길 60 (율량동)","location":{"x":127.4952848,"y":36.6651277},"name":"국민약국","phone":"043-237-4987"},
  {"address":"서울특별시 중구 명동길 45, 1,2층 (명동1가)","location":{"x":126.9846643,"y":37.5643018},"name":"굿약국","phone":"02-3789-3883"},
  {"address":"경기도 수원시 권선구 동수원로242번길 27 (권선동)","location":{"x":127.03609,"y":37.2509182},"name":"권선중앙약국","phone":"031-226-2326"},
  {"address":"충청남도 아산시 모종남로12번길 7, 1층 (모종동)","location":{"x":127.0207198,"y":36.779101},"name":"그랜드약국","phone":"041-545-1488"},
  {"address":"서울특별시 광진구 아차산로29길 55, (화양동)","location":{"x":127.0720801,"y":37.5453363},"name":"그랜드약국","phone":"02-462-8447"},
  {"address":"전라남도 해남군 해남읍 해남로 45-1","location":{"x":126.6121245,"y":34.5713974},"name":"금강약국","phone":"061-535-1144"},
  {"address":"경기도 성남시 수정구 시민로 227 (태평동)","location":{"x":127.1405148,"y":37.4480862},"name":"금광약국","phone":"031-755-1924"},
  {"address":"광주광역시 서구 금화로 71, 미미빌딩 1층 (금호동)","location":{"x":126.8564944,"y":35.1324797},"name":"금호스타약국","phone":"062-383-8255"},
  {"address":"서울특별시 서초구 잠원로 24 반포자이프라자상가 1층","location":{"x":127.0098413,"y":37.5071264},"name":"기린약국","phone":"050-71316-7241"},
  {"address":"서울특별시 강남구 개포로 228","location":{"x":127.0477167,"y":37.4786464},"name":"기쁨약국","phone":"02-574-1087"},
  {"address":"서울특별시 강동구 양재대로 1478 (길동)","location":{"x":127.1402629,"y":37.5376692},"name":"길동보룡약국","phone":"02-477-4114"},
  {"address":"충청남도 논산시 시민로132번길 48, 115호 (내동)","location":{"x":127.1061184,"y":36.1806992},"name":"나나약국","phone":"041-736-5035"},
  {"address":"광주광역시 남구 대남대로 131, 미래아동병원 1층 (주월동)","location":{"x":126.9107263,"y":35.1337021},"name":"나래약국","phone":"062-675-0203"},
  {"address":"광주광역시 북구 첨단연신로 97  (신용동)","location":{"x":126.8640121,"y":35.2066115},"name":"나래종로약국","phone":"070-4221-9797"},
  {"address":"서울특별시 노원구 상계로12길 41, (상계동)","location":{"x":127.0696297,"y":37.6564471},"name":"나현약국","phone":"02-936-7718"},
  {"address":"서울특별시 구로구 구로동로 33 (가리봉동)","location":{"x":126.8860375,"y":37.484567},"name":"남구로약국","phone":"02-838-3104"},
  {"address":"충청북도 충주시 남산4길 52, (교현동)","location":{"x":127.9448809,"y":36.9664587},"name":"남산태평양약국","phone":"043-847-8051"},
  {"address":"경기도 화성시 봉담읍 와우안길 65 (봉담읍)","location":{"x":126.9749147,"y":37.2170727},"name":"남수원약국","phone":"031-223-4746"},
  {"address":"강원특별자치도 춘천시 신동면 김유정로 1634","location":{"x":127.72915,"y":37.8333388},"name":"남춘천대형약국","phone":"033-262-9328"},
  {"address":"대전광역시 동구 동서대로 1689 서관 1층 (용전동)","location":{"x":127.4366379,"y":36.3503832},"name":"노닐약국","phone":"042-622-5511"},
  {"address":"서울특별시 강남구 강남대로118길 51","location":{"x":127.0272457,"y":37.5075103},"name":"노바약국","phone":"02-542-3696"},
  {"address":"경기도 광명시 하안로 295, 1층 (하안동)","location":{"x":126.8799361,"y":37.4619819},"name":"노벨약국","phone":"02-898-0607"},
  {"address":"경기도 안산시 상록구 해양5로 11, 상가 213호 (사동)","location":{"x":126.8319834,"y":37.2798738},"name":"녹십자해솔약국","phone":"031-401-1967"},
  {"address":"서울특별시 강남구 강남대로122길 10, 영흥빌딩 1층 일부호 (논현동)","location":{"x":127.024082,"y":37.5077022},"name":"논현밝은약국","phone":"02-2135-2846"},
  {"address":"인천광역시 남동구 논고개로 117, 메트로타워 (논현동)","location":{"x":126.7238471,"y":37.4016603},"name":"논현프라자약국","phone":"032-441-3170"},
  {"address":"경기도 부천시 부일로 727, 1층 (역곡동, 2000BNG빌딩)","location":{"x":126.8106053,"y":37.4857958},"name":"뉴녹십자약국","phone":"032-343-0307"},
  {"address":"경기도 안산시 단원구 선부로 199, 동진프라자 105-106호 (선부동)","location":{"x":126.8171038,"y":37.3418204},"name":"뉴본약국","phone":"031-486-8283"},
  {"address":"서울특별시 송파구 송파대로 278, 1층 (가락동)","location":{"x":127.1177102,"y":37.4943023},"name":"뉴프라임약국","phone":"02-403-2638"},
  {"address":"경기도 안양시 만안구 박달로 531 (박달동)","location":{"x":126.9118113,"y":37.4027743},"name":"늘봄약국","phone":"031-465-0111"},
  {"address":"경상남도 김해시 분성로 536, 김해어방우편취급소 (어방동)","location":{"x":128.9044569,"y":35.2352369},"name":"늘열린약국","phone":"055-336-7924"},
  {"address":"경기도 오산시 오산로 70, (갈곶동)","location":{"x":127.0692792,"y":37.1329394},"name":"다나약국","phone":"031-374-2878"},
  {"address":"경기도 성남시 분당구 대왕판교로606번길 39, 럭스타워 109,110호 (삼평동)","location":{"x":127.1115011,"y":37.3964792},"name":"다낫는럭스타워약국","phone":"070-8815-1626"},
  {"address":"경기도 남양주시 다산순환로 350, 다산진건지구 상업2-7-1,2 106,107호 (다산동)","location":{"x":127.1599342,"y":37.6218241},"name":"다산현대약국","phone":"070-7576-2443"},
  {"address":"광주광역시 북구 첨단연신로 100, 첨단2지구 대성베르힐 A동 110호 (신용동)","location":{"x":126.8606829,"y":35.2074381},"name":"다온약국","phone":"062-652-5800"},
  {"address":"경기도 고양시 일산동구 정발산로 39 대양빌딩 (장항동)","location":{"x":126.7733481,"y":37.6573810999999},"name":"다원약국","phone":"031-901-0121"},
  {"address":"전북특별자치도 군산시 하나운로 38 105 나운동 나운프라자1층)","location":{"x":126.7008923,"y":35.9621826},"name":"단골온누리약국","phone":"063-465-9998"},
  {"address":"경상남도 양산시 물금읍 물금로 75, 상가동 1층 109호 (이지더원 그랜드파크)","location":{"x":128.9914129,"y":35.3134507},"name":"달빛약국","phone":"055-912-9739"},
  {"address":"충청남도 아산시 모종남로12번길 7, 1층 (모종동)","location":{"x":127.0207198,"y":36.779101},"name":"대광약국","phone":"041-545-1488"},
  {"address":"경상북도 칠곡군 약목면 약목로 72","location":{"x":128.3663644,"y":36.0329477},"name":"대구약국","phone":"054-974-4073"},
  {"address":"광주광역시 동구 백서로125번길 25","location":{"x":126.9179198,"y":35.1439297},"name":"대동약국","phone":"062-223-7675"},
  {"address":"인천광역시 계양구 효서로 233, 109호 (작전동)","location":{"x":126.7220078,"y":37.5281336},"name":"대명약국","phone":"032-543-0224"},
  {"address":"전북특별자치도 전주시 완산구 문화광장로 28-1","location":{"x":127.1469168,"y":35.8230247},"name":"대성약국","phone":"063-285-3276"},
  {"address":"서울특별시 용산구 회나무로 23 (이태원동)","location":{"x":126.9891721,"y":37.5393602},"name":"대성옵티마약국","phone":"02-794-0389"},
  {"address":"서울특별시 중구 세종대로 22 (남대문로5가)","location":{"x":126.9753153,"y":37.5560962},"name":"대우사약국","phone":"02-753-2703"},
  {"address":"대전광역시 중구 중앙로 125-1, (선화동)","location":{"x":127.4237842,"y":36.3281117},"name":"대우약국","phone":"042-256-1058"},
  {"address":"경기도 수원시 장안구 경수대로 998 (송죽동)","location":{"x":127.0024891,"y":37.3060049},"name":"대웅약국","phone":"031-248-6700"},
  {"address":"서울특별시 동작구 동작대로27길 22 (사당동)","location":{"x":126.9806415,"y":37.4876982},"name":"대일약국","phone":"02-591-4655"},
  {"address":"대구광역시 중구 중앙대로 447-1 (향촌동)","location":{"x":128.593695,"y":35.8733036},"name":"대하약국","phone":"053-254-8164"},
  {"address":"경기도 용인시 수지구 풍덕천로 155, 수지마을동보아파트 상가동 106호 (풍덕천동)","location":{"x":127.0981071,"y":37.3257472},"name":"대학당약국","phone":"031-262-5666"},
  {"address":"경기도 하남시 하남대로739번길 80","location":{"x":127.2091027,"y":37.5366381},"name":"대학약국","phone":"031-792-2505"},
  {"address":"경기도 수원시 장안구 장안로 270-3","location":{"x":126.9914663,"y":37.3061168},"name":"대형약국","phone":"031-243-7726"},
  {"address":"강원특별자치도 춘천시 신동면 김유정로 1668, H동 1층","location":{"x":127.7315194,"y":37.8365277},"name":"대형춘천백화점약국","phone":"033-261-8878"},
  {"address":"인천광역시 중구 제물량로24번길 6-34 (신흥동3가)","location":{"x":126.6379949,"y":37.4617784},"name":"대황약국","phone":"032-884-4762"},
  {"address":"서울특별시 성동구 마조로9길 15, 1층 (행당동)","location":{"x":127.0397777,"y":37.5611788},"name":"더밝은약국","phone":"02-2281-7923"},
  {"address":"서울특별시 광진구 아차산로 272 (자양동, 스타시티쇼핑몰)","location":{"x":127.0728429,"y":37.5386463},"name":"더샵스타시티약국","phone":"220241311"},
  {"address":"광주광역시 서구 치평로 32 1층","location":{"x":126.8476665,"y":35.1501409},"name":"더슬림한약국","phone":"062-373-0059"},
  {"address":"서울특별시 광진구 능동로 90, 1층 104-2호 (자양동, 더클래식500)","location":{"x":127.0711369,"y":37.5387882},"name":"더클래식약국","phone":"02-455-4565"},
  {"address":"경기도 성남시 수정구 성남대로 1169, 남영빌딩 2층 (수진동)","location":{"x":127.1283879,"y":37.434213},"name":"더편한365모란약국","phone":"031-721-3650"},
  {"address":"경기도 고양시 덕양구 백양로 51, 104호 (화정동)","location":{"x":126.8331852,"y":37.6303196},"name":"덕양메디칼약국","phone":"031-938-1726"},
  {"address":"대전광역시 유성구 엑스포로123번길 27-22, 제1층 제6호 (도룡동)","location":{"x":127.3926662,"y":36.3762072},"name":"도룡365약국","phone":"042-000-0000"},
  {"address":"대전광역시 서구 배재로 182-1, 1층 (도마동)","location":{"x":127.3706048,"y":36.3247599},"name":"도마태평양약국","phone":"042-528-7774"},
  {"address":"대구광역시 동구 화랑로 123, 1층 115호 (효목동, 유림아파트)","location":{"x":128.6398119,"y":35.8738486},"name":"동구시장심야약국","phone":"053-743-2223"},
  {"address":"서울특별시 영등포구 영중로 22  (영등포동3가)","location":{"x":126.908863,"y":37.5176613},"name":"동보약국","phone":"02-2678-0362"},
  {"address":"경상북도 울진군 울진읍 읍내8길 14","location":{"x":129.4021171,"y":36.9946496},"name":"동산약국","phone":"054-783-2273"},
  {"address":"부산광역시 금정구 금강로 180, (장전동)","location":{"x":129.0820644,"y":35.2245879},"name":"동신약국","phone":"051-582-5418"},
  {"address":"인천광역시 부평구 열우물로 50, (십정동)","location":{"x":126.7008306,"y":37.4726074},"name":"동암프라자약국","phone":"032-421-8642"},
  {"address":"서울특별시 서초구 남부순환로356길 15","location":{"x":127.037971,"y":37.4843743},"name":"동우약국","phone":"02-574-2678"},
  {"address":"경기도 시흥시 봉우재로 10 (정왕동, 세란약국)","location":{"x":126.743102,"y":37.3441399},"name":"동의세란약국","phone":"031-319-2539"},
  {"address":"대전광역시 대덕구 대전로 1123, (오정동)","location":{"x":127.4147998,"y":36.3547732},"name":"동이약국","phone":"042-673-0108"},
  {"address":"경상북도 포항시 북구 불종로 57 (상원동)","location":{"x":129.3659148,"y":36.0387993999999},"name":"두꺼비약국","phone":"054-247-2455"},
  {"address":"경기도 고양시 덕양구 백양로 79 이마트 내 1층","location":{"x":126.8334154,"y":37.6326687},"name":"드림팜약국","phone":"031-979-7210"},
  {"address":"부산광역시 동래구 아시아드대로 226","location":{"x":129.0672775,"y":35.2038771},"name":"따뜻한약국","phone":"051-505-9763"},
  {"address":"경기도 고양시 일산동구 중앙로1275번길 64, 2(일부)층 (장항동, 홈플러스 일산점)","location":{"x":126.7688722,"y":37.6590437},"name":"따뜻한약국","phone":"031-904-0642"},
  {"address":"경기도 수원시 팔달구 덕영대로 924, 수원역 분당선지하상가 2호 (매산로1가)","location":{"x":126.9994077,"y":37.2664398},"name":"랄랄라약국","phone":"031-258-3448"},
  {"address":"전라남도 목포시 청호로 154 (산정동)","location":{"x":126.3751984,"y":34.8049705},"name":"로뎀온누리약국","phone":"061-278-6705"},
  {"address":"서울특별시 마포구 양화로 지하 55, 합정역 B1  238-105호 (서교동)","location":{"x":126.9160284,"y":37.5432842},"name":"롱약국","phone":"070-8098-4603"},
  {"address":"경기도 수원시 권선구 금호로 213 (구운동)","location":{"x":126.9733899,"y":37.2753363},"name":"링컨약국","phone":"031-291-1501"},
  {"address":"서울특별시 동대문구 고산자로 410, 1층 (용두동)","location":{"x":127.0386389,"y":37.5762585},"name":"마장백화점약국","phone":"02-962-1161"},
  {"address":"경기도 수원시 권선구 경수대로 270 (권선동, 이마트)","location":{"x":127.0208851,"y":37.2504415999999},"name":"마트약국","phone":"031-207-1278"},
  {"address":"서울특별시 양천구 오목로 299","location":{"x":126.8703832,"y":37.5259926},"name":"마트온누리약국","phone":"02-2651-3467"},
  {"address":"경기도 평택시 영신로 29","location":{"x":127.0758044,"y":37.0211767},"name":"마트종로약국","phone":"031-651-9631"},
  {"address":"전북특별자치도 전주시 덕진구 만성중앙로 51, 104호 (만성동)","location":{"x":127.0774052,"y":35.842857},"name":"만성365약국","phone":"063-906-2010"},
  {"address":"강원특별자치도 원주시 호저면 원문로 631","location":{"x":127.9001082,"y":37.3535845},"name":"만종대형약국","phone":"033-731-1365"},
  {"address":"서울특별시 관악구 신림로 357, 1층 (신림동)","location":{"x":126.9291337,"y":37.4861848},"name":"맘이편한약국","phone":"02-888-8848"},
  {"address":"서울특별시 마포구 월드컵로13길 56, 1층 (망원동)","location":{"x":126.9070317,"y":37.5553722999999},"name":"망원시장약국","phone":"02-790-7527"},
  {"address":"경기도 수원시 팔달구 덕영대로 923-1 (매산로1가, 새수원 빌딩)","location":{"x":127.0016423,"y":37.2661275},"name":"매산약국","phone":"031-207-6122"},
  {"address":"서울특별시 마포구 월드컵북로 396, 누리꿈스퀘어 B1094호 (상암동)","location":{"x":126.8900812,"y":37.5796548},"name":"매일여는약국","phone":"02-2132-8365"},
  {"address":"서울특별시 양천구 목동동로 233-1 (목동)","location":{"x":126.871643,"y":37.5274646},"name":"매일여는약국","phone":"02-2061-3650"},
  {"address":"서울특별시 송파구 백제고분로 187, 1층 103,104호 (잠실동, 파크인수)","location":{"x":127.0877456,"y":37.5047602},"name":"매일여는온누리약국","phone":"02-3432-0365"},
  {"address":"인천광역시 남동구 예술로 198, CGV 홈플러스 (구월동)","location":{"x":126.7018875,"y":37.4519297999999},"name":"매일여는온누리약국","phone":"032-435-1777"},
  {"address":"경기도 평택시 중앙로 9-1 (통복동)","location":{"x":127.0845366,"y":36.9956191},"name":"메디칼세계로약국","phone":"031-657-8078"},
  {"address":"경상남도 창원시 성산구 원이대로 664, 창원메디컬 (상남동)","location":{"x":128.6831732,"y":35.2197116},"name":"메디칼큰온누리약국","phone":"055-283-0990"},
  {"address":"서울특별시 서초구 강남대로 615, 1층 (잠원동, 금정빌딩)","location":{"x":127.0189002,"y":37.5166298},"name":"메디칼허브약국","phone":"02-540-5001"},
  {"address":"경기도 구리시 검배로6번길 3 , 1층 (수택동)","location":{"x":127.1414431,"y":37.6002071},"name":"메디팜365약국","phone":"031-552-7071"},
  {"address":"서울특별시 은평구 수색로 270-1","location":{"x":126.8945344,"y":37.5829195},"name":"메디팜건강약국","phone":"02-372-9791"},
  {"address":"경기도 수원시 팔달구 효원로 257 4층(인계동, 동수원홈플러스) (인계동)","location":{"x":127.0304399,"y":37.2625361},"name":"메디팜동수원약국","phone":"031-232-8075"},
  {"address":"서울특별시 양천구 신목로 36, 102호 (신정동, 대보빌딩)","location":{"x":126.8738236,"y":37.518869},"name":"메디팜신정교약국","phone":"02-2649-8275"},
  {"address":"경상남도 창원시 성산구 원이대로580번길 16  (중앙동)","location":{"x":128.6771568,"y":35.2271075},"name":"메디팜엄마손약국","phone":"055-263-7743"},
  {"address":"서울특별시 서초구 잠원로14길 29  (잠원동)","location":{"x":127.0154173,"y":37.5178426},"name":"메디팜은강약국","phone":"02-593-3245"},
  {"address":"경기도 안산시 상록구 광덕1로 376, (이동)","location":{"x":126.8514768,"y":37.3079279},"name":"메디팜한대약국","phone":"031-438-4181"},
  {"address":"경기도 부천시 조마루로386번길 61, (원미동)","location":{"x":126.7860457,"y":37.4951423},"name":"메디팜해성약국","phone":"032-613-5028"},
  {"address":"서울특별시 중랑구 용마산로 328 (면목동)","location":{"x":127.0936603,"y":37.5810714},"name":"면목백화점약국","phone":"02-2207-4636"},
  {"address":"서울특별시 중구 명동7길 14  (명동1가)","location":{"x":126.9844822,"y":37.5643882},"name":"명동하이약국","phone":"070-4140-8275"},
  {"address":"서울특별시 강남구 테헤란로 지하 156, B2층 219호 (역삼동)","location":{"x":127.0362649,"y":37.5003324},"name":"모두약국","phone":"02-508-0429"},
  {"address":"경기도 용인시 수지구 수지로 203, E 마트 지하1층 (신봉동)","location":{"x":127.0833573,"y":37.3198203},"name":"모범약국","phone":"031-263-7128"},
  {"address":"서울특별시 성북구 화랑로11길 23, 1층 (하월곡동)","location":{"x":127.0416732,"y":37.6034129},"name":"모아약국","phone":"02-942-4534"},
  {"address":"서울특별시 양천구 오목로 224, 1층 (신정동)","location":{"x":126.8624332,"y":37.5256416},"name":"목동제일큰약국","phone":"02-2608-8922"},
  {"address":"전라남도 나주시 나주로 204 (성북동)","location":{"x":126.7182012,"y":35.0340701},"name":"목사골한국약국","phone":"061-337-9449"},
  {"address":"충청남도 천안시 동남구 목천읍 충절로 881","location":{"x":127.2084325,"y":36.7728126},"name":"목천종로약국","phone":"041-523-9414"},
  {"address":"경상북도 포항시 남구 오천읍 문덕로 3, 102호","location":{"x":129.4033031,"y":35.9622852},"name":"문덕365약국","phone":"054-610-2497"},
  {"address":"경기도 의정부시 평화로 647, 107,108호 (의정부동, 미건메디컬프라자)","location":{"x":127.0446275,"y":37.7496269},"name":"미건메디컬약국","phone":"031-846-9001"},
  {"address":"경기도 성남시 분당구 돌마로 46, 101호 (구미동, 광천프라자)","location":{"x":127.1069631,"y":37.3496747},"name":"미래팜대학약국","phone":"031-717-7570"},
  {"address":"대구광역시 남구 월배로 468, 한영유니죤빌딩 105호 (대명동)","location":{"x":128.5559905,"y":35.8346386},"name":"미소약국","phone":"053-657-2089"},
  {"address":"인천광역시 중구 하늘별빛로65번길 11, 해솔프라자 1층 101호 (중산동)","location":{"x":126.5634308,"y":37.4884843},"name":"미소약국","phone":"032-752-3213"},
  {"address":"전북특별자치도 전주시 덕진구 명륜4길 21(덕진동1가)","location":{"x":127.1269365,"y":35.8438983},"name":"민트약국","phone":"063-000-0000"},
  {"address":"서울특별시 관악구 봉천로 534 (봉천동)","location":{"x":126.956967,"y":37.4786833},"name":"믿음약국","phone":"02-888-2104"},
  {"address":"경상남도 밀양시 중앙로 381","location":{"x":128.7511309,"y":35.4956452},"name":"밀성메디칼약국","phone":"055-356-4950"},
  {"address":"전북특별자치도 전주시 완산구 홍산중앙로 22, 1층 (효자동3가)","location":{"x":127.109368,"y":35.8155799},"name":"바로약국","phone":"063-000-0000"},
  {"address":"경기도 부천시 경인로 508  (괴안동)","location":{"x":126.8121514,"y":37.4810715},"name":"바른손약국","phone":"032-343-4217"},
  {"address":"대전광역시 서구 대덕대로 222, 강남프라자 106호 (둔산동)","location":{"x":127.3797393,"y":36.352388},"name":"밝은365약국","phone":"042-322-4560"},
  {"address":"충청북도 청주시 흥덕구 사운로 254, 1층 (운천동, 손범수내과소아과의원)","location":{"x":127.4743158,"y":36.6507356},"name":"밝은약국","phone":"043-262-9957"},
  {"address":"대전광역시 서구 관저동로105번길 8, 1층 (관저동)","location":{"x":127.3401041,"y":36.3017346},"name":"밝은약국","phone":"042-341-4560"},
  {"address":"제주특별자치도 서귀포시 일주동로 8648-3 (동홍동)","location":{"x":126.564157,"y":33.2542241},"name":"밝은온누리약국","phone":"064-762-1192"},
  {"address":"서울특별시 중랑구 신내로 82, 1층 109호 (신내동, 금강빌딩)","location":{"x":127.0955581,"y":37.6066575},"name":"백세약국","phone":"02-3421-7015"},
  {"address":"전라남도 여수시 여서1로 52 (여서동)","location":{"x":127.7036104,"y":34.7521521},"name":"백운약국","phone":"061-655-2999"},
  {"address":"경기도 부천시 부천로10번길 9, 1층 (심곡동)","location":{"x":126.783449,"y":37.4852064},"name":"백제약국","phone":"032-655-1145"},
  {"address":"인천광역시 동구 화수로 18, 동부센트레빌 상가 103호 (송현동)","location":{"x":126.6353459,"y":37.4822668},"name":"백제약국","phone":"032-764-5747"},
  {"address":"경기도 안산시 상록구 석호로 292, 1층 (본오동)","location":{"x":126.8631191,"y":37.2933431},"name":"백화점약국","phone":"031-407-6077"},
  {"address":"서울특별시 강북구 도봉로96길 11, 1층 (번동)","location":{"x":127.02958,"y":37.6405865},"name":"백화점약국","phone":"02-994-1282"},
  {"address":"경기도 파주시 새꽃로 62, 107호 (금촌동)","location":{"x":126.7689508,"y":37.7554807},"name":"베스트소망약국","phone":"031-943-2729"},
  {"address":"인천광역시 연수구 하모니로 158, 송도타임스페이스 A-110,111,112호 (송도동)","location":{"x":126.6416353,"y":37.3839876},"name":"별온누리약국","phone":"032-832-9933"},
  {"address":"경기도 안양시 만안구 안양로314번길 26 (안양동)","location":{"x":126.921855,"y":37.4007163},"name":"보건약국","phone":"031-449-9793"},
  {"address":"광주광역시 동구 충장로58번길 20, (충장로4가)","location":{"x":126.9125089,"y":35.1489537},"name":"보광약국","phone":"062-223-3735"},
  {"address":"경기도 여주시 세종로 77, 1층 (홍문동)","location":{"x":127.6354465,"y":37.2909645},"name":"보룡약국","phone":"031-886-5147"},
  {"address":"경상북도 안동시 광명로 161","location":{"x":128.7008421,"y":36.5623201999999},"name":"보명당한약국","phone":"054-855-3358"},
  {"address":"경상북도 경산시 자인면 일연로 80,","location":{"x":128.8229254,"y":35.820257},"name":"복광당약국","phone":"053-857-1150"},
  {"address":"대구광역시 중구 달성로 29 (대신동)","location":{"x":128.5820544,"y":35.867794},"name":"복음약국","phone":"053-252-1325"},
  {"address":"대구광역시 달서구 용산로 52, 1층 (장기동)","location":{"x":128.5308818,"y":35.8421915},"name":"본리심야약국","phone":"053-523-1101"},
  {"address":"대전광역시 유성구 계룡로 120, 1층 102호 (봉명동)","location":{"x":127.3437182,"y":36.3526481},"name":"봉명메디칼약국","phone":"042-543-7572"},
  {"address":"충청남도 천안시 서북구 쌍용대로 296-1, 1층 일부 (성정동)","location":{"x":127.1371975,"y":36.8235363},"name":"부광약국","phone":"041-578-6770"},
  {"address":"부산광역시 부산진구 부전로66번길 50 (부전동)","location":{"x":129.0574456,"y":35.1557804},"name":"부민약국","phone":"051-806-8074"},
  {"address":"제주특별자치도 제주시 신대로16길 41","location":{"x":126.4921356,"y":33.4867328},"name":"부부온누리약국","phone":"064-742-5252"},
  {"address":"인천광역시 미추홀구 한나루로 411 (학익동)","location":{"x":126.6650449,"y":37.4443883},"name":"부영약국","phone":"032)875-2391"},
  {"address":"경기도 부천시 소사로 722, 103호 (원종동, 제이디 스카이빌)","location":{"x":126.8050998,"y":37.520522},"name":"부천우리365약국","phone":"032-673-0424"},
  {"address":"인천광역시 부평구 경인로 947 (부평동, 태성메디칼 109호110호)","location":{"x":126.7249773,"y":37.4878668},"name":"부평판도라약국","phone":"032-584-7595"},
  {"address":"경기도 성남시 분당구 서현로210번길 17, 106호 (서현동, 광림프라자)","location":{"x":127.1246037,"y":37.385512},"name":"분당백화점약국","phone":"031-701-2231"},
  {"address":"인천광역시 부평구 광장로 16, 부평민자역사 지하2층 39호, 40호 (부평동)","location":{"x":126.714529,"y":37.482888},"name":"분수대약국","phone":"032-362-5317"},
  {"address":"서울특별시 마포구 월드컵로 111, (망원동)","location":{"x":126.9077964,"y":37.558185},"name":"비온뒤숲속약국","phone":"02-332-3250"},
  {"address":"전라남도 목포시 하당로 278, (옥암동)","location":{"x":126.426441,"y":34.811046},"name":"비타민약국","phone":"061-284-7571"},
  {"address":"서울특별시 금천구 독산로50길 84","location":{"x":126.9088241,"y":37.4623815},"name":"비타민약국","phone":"02-892-5949"},
  {"address":"부산광역시 부산진구 중앙대로 701, 1층 (부전동)","location":{"x":129.0589052,"y":35.1554549},"name":"사나약국","phone":"051-922-9422"},
  {"address":"서울특별시 관악구 과천대로 955, 1층 (남현동)","location":{"x":126.9811742,"y":37.4759566},"name":"사당365약국","phone":"02-588-9050"},
  {"address":"경기도 수원시 팔달구 갓매산로 51, 105호 (매산로2가, 에스알프라자23차)","location":{"x":127.0017585,"y":37.2674853},"name":"사랑약국","phone":"7088711324"},
  {"address":"전북특별자치도 전주시 완산구 백제대로 74 (삼천동1가)","location":{"x":127.1205251,"y":35.7969004},"name":"사랑약국","phone":"063-229-1400"},
  {"address":"경상북도 포항시 북구 우창동로22번길 3-3 (우현동)","location":{"x":129.3618516,"y":36.054427},"name":"사랑약국","phone":"054-247-2069"},
  {"address":"경기도 고양시 덕양구 중앙로558번길 13, 102호 (행신동,삼성프라자)","location":{"x":126.83585,"y":37.6243738999999},"name":"삼성약국","phone":"031-979-7366"},
  {"address":"경기도 의정부시 비우로 60, 인창빌딩 1층 104호 (녹양동)","location":{"x":127.0332797,"y":37.7578993},"name":"삼성약국","phone":"031-928-5436"},
  {"address":"인천광역시 미추홀구 낙섬서로 4, 현대메디켈센타 102호 좌측호 (용현동)","location":{"x":126.6336927,"y":37.4500312},"name":"삼성온누리약국","phone":"032-881-8171"},
  {"address":"경기도 고양시 덕양구 고양대로 1955, 지하2층 (동산동, 스타필드고양)","location":{"x":126.8951905,"y":37.6471792},"name":"삼송스타약국","phone":"02-2063-9100"},
  {"address":"인천광역시 서구 칠천왕로33번길 14, 1층 일부호 (석남동)","location":{"x":126.6703822,"y":37.5094632},"name":"삼육오사랑약국","phone":"032-575-6849"},
  {"address":"강원특별자치도 원주시 단구로 386 (단구동)","location":{"x":127.956138,"y":37.3223394},"name":"삼육오약국","phone":"033-763-4072"},
  {"address":"서울특별시 동대문구 회기로29길 35, 1층 (휘경동)","location":{"x":127.0579976,"y":37.5917088},"name":"삼익약국","phone":"02-963-5490"},
  {"address":"경기도 수원시 장안구 수성로245번길 64 (정자동)","location":{"x":126.9976959,"y":37.2919521},"name":"삼일약국","phone":"031-256-1131"},
  {"address":"대구광역시 달서구 와룡로 123, 1층 113호 (감삼동, 죽전역 동화아이위시)","location":{"x":128.5368192,"y":35.8450523},"name":"삼일약국","phone":"053-568-3375"},
  {"address":"서울특별시 용산구 원효로19길 72-1, 1층 (원효로3가)","location":{"x":126.9558358,"y":37.5334813},"name":"삼정약국","phone":"02-712-4941"},
  {"address":"서울특별시 금천구 은행나무로 12-1","location":{"x":126.9040126,"y":37.4500886999999},"name":"삼화약국","phone":"02-803-4167"},
  {"address":"서울특별시 노원구 한글비석로20길 23-1, 1층 (중계동)","location":{"x":127.0737217,"y":37.6602447},"name":"상계1번약국","phone":"02-938-1082"},
  {"address":"서울특별시 마포구 독막로 63, 1층 (상수동)","location":{"x":126.920541,"y":37.5479878},"name":"상수오아시스약국","phone":"02-333-7728"},
  {"address":"강원특별자치도 강릉시 구정면 범일로 447","location":{"x":128.8788531,"y":37.7277975},"name":"새 구정프라자약국","phone":"033-642-3474"},
  {"address":"서울특별시 노원구 동일로 1003, 1층 (공릉동)","location":{"x":127.0746486,"y":37.6197105},"name":"새고운약국","phone":"02-973-9286"},
  {"address":"대구광역시 동구 신암남로27길 81","location":{"x":128.6308766,"y":35.8838177},"name":"새동보약국","phone":"053-941-0427"},
  {"address":"경기도 성남시 중원구 성남대로1148번길 2 , 1층 101,102,103호 (성남동, 소평빌딩) (성남동)","location":{"x":127.1295062,"y":37.4322793},"name":"새모란21세기약국","phone":"031-758-1940"},
  {"address":"인천광역시 서구 중봉대로 587","location":{"x":126.6486335,"y":37.5323161},"name":"새봄약국","phone":"032-562-8050"},
  {"address":"경상북도 안동시 경동로 656, 홈플러스 (운흥동)","location":{"x":128.7313487,"y":36.5606037},"name":"새봄약국","phone":"054-859-7908"},
  {"address":"대전광역시 유성구 전민로70번길 38, (전민동)","location":{"x":127.4024813,"y":36.3988017},"name":"새생명약국","phone":"042-864-4661"},
  {"address":"경기도 수원시 팔달구 동말로48번길 6 (화서동)","location":{"x":126.9993981,"y":37.2784196},"name":"새시대온누리약국","phone":"031-245-4119"},
  {"address":"서울특별시 중랑구 망우로62길 81, (망우동)","location":{"x":127.0996461,"y":37.596131},"name":"새시장약국","phone":"02-436-7554"},
  {"address":"경기도 수원시 영통구 효원로 363","location":{"x":127.04141,"y":37.2618194},"name":"새싹약국","phone":"031-211-2583"},
  {"address":"서울특별시 성동구 광나루로11길 41-1  (송정동)","location":{"x":127.0678602,"y":37.5514938},"name":"새인선약국","phone":"02-466-4159"},
  {"address":"서울특별시 노원구 동일로 1308","location":{"x":127.0661,"y":37.6470008999999},"name":"새하늘약국","phone":"02-971-0610"},
  {"address":"서울특별시 강서구 등촌로 173, 1층 (등촌동)","location":{"x":126.8620781,"y":37.5454069},"name":"새한약국","phone":"02-2651-1577"},
  {"address":"경기도 부천시 역곡로 8, 1층 (역곡동)","location":{"x":126.8117531,"y":37.4861119},"name":"새현대약국","phone":"032-341-7467"},
  {"address":"전북특별자치도 정읍시 수성로 50, (수성동)","location":{"x":126.8557259,"y":35.5821414},"name":"샘골약국","phone":"063-538-0222"},
  {"address":"서울특별시 노원구 노원로 43 (공릉동)","location":{"x":127.085785,"y":37.6254113},"name":"샘물약국","phone":"02-971-2268"},
  {"address":"광주광역시 남구 서문대로 827, 상가동 1층 105호 (주월동, 봉선주월 대라수 어썸브릿지)","location":{"x":126.8895418,"y":35.1339639},"name":"샛별약국","phone":"062-674-1398"},
  {"address":"경상북도 포항시 남구 오천읍 정몽주로 651","location":{"x":129.4134995,"y":35.9759847},"name":"서문제일약국","phone":"542917416"},
  {"address":"전북특별자치도 전주시 완산구 온고을로 66","location":{"x":127.1155334,"y":35.8342268},"name":"서신토마토약국","phone":"063-274-5755"},
  {"address":"경기도 고양시 일산동구 고봉로 20-21, 119호 (장항동, 양우로데오랜드)","location":{"x":126.7656484,"y":37.663757},"name":"서울드림약국","phone":"031-915-1199"},
  {"address":"서울특별시 강남구 역삼로 406  (대치동)","location":{"x":127.0515962,"y":37.5005399},"name":"서울메디약국","phone":"02-501-5063"},
  {"address":"세종특별자치시 남세종로 450, 보람빌딩 104호 (보람동)","location":{"x":127.2899926,"y":36.4773512},"name":"서울약국","phone":"044-863-8871"},
  {"address":"경기도 의정부시 시민로131번길 7","location":{"x":127.0497284,"y":37.7384367},"name":"서울약국","phone":"031-842-9515"},
  {"address":"서울 용산구 한강대로 405 1층  (동자동)","location":{"x":126.9710685,"y":37.5523947},"name":"서울중앙약국","phone":"02-313-4483"},
  {"address":"서울특별시 강남구 테헤란로 지하 340, 선릉역 지하1층 220-103호 (삼성동)","location":{"x":127.048957,"y":37.504487},"name":"선릉역약국","phone":"02-556-3339"},
  {"address":"경기도 수원시 팔달구 덕영대로 899, 세진브론즈빌 102호 (매산로1가)","location":{"x":127.0000869,"y":37.268155},"name":"선약국","phone":"031-895-5888"},
  {"address":"경기도 의왕시 전주남이길 28  (오전동)","location":{"x":126.9772746,"y":37.3503875},"name":"선약국","phone":"031-456-7125"},
  {"address":"광주광역시 광산구 선운중앙로 46, 1층 (선암동)","location":{"x":126.7770391,"y":35.1480769},"name":"선운포도약국","phone":"062-943-0031"},
  {"address":"서울특별시 성동구 마조로1길 39(행당동)","location":{"x":127.0392288,"y":37.5610124},"name":"설약국","phone":"02-2294-8274"},
  {"address":"서울특별시 동작구 노량진로 124, 1층 (노량진동)","location":{"x":126.9397393,"y":37.5132966},"name":"설약국","phone":"02-825-8272"},
  {"address":"충청북도 증평군 증평읍 광장로 91, 성가약국","location":{"x":127.5829606,"y":36.7856407},"name":"성가약국","phone":"043-836-2405"},
  {"address":"경기도 수원시 장안구 서부로 2107, (율전동)","location":{"x":126.9701088,"y":37.2968664},"name":"성균관약국","phone":"031-292-7300"},
  {"address":"경기도 성남시 수정구 수정로 175, 동일빌딩 1층 (태평동)","location":{"x":127.1392388,"y":37.4434396},"name":"성남참조은약국","phone":"031-609-1113"},
  {"address":"전라남도 순천시 해룡면 순광로 220","location":{"x":127.542694,"y":34.9630977},"name":"성모약국","phone":"061-724-5707"},
  {"address":"경기도 의정부시 행복로 31, 1층 (의정부동)","location":{"x":127.0495512,"y":37.7414322},"name":"성모온누리약국","phone":"031-824-6969"},
  {"address":"경기도 군포시 군포로735번길 4, 1층 (산본동)","location":{"x":126.9431644,"y":37.371033},"name":"성보약국","phone":"031-391-7881"},
  {"address":"서울특별시 중랑구 공릉로12가길 52, (묵동)","location":{"x":127.0822345,"y":37.6175472},"name":"성지옵티마약국","phone":"02-972-9890"},
  {"address":"충청북도 청주시 서원구 서부로 1350","location":{"x":127.4484073,"y":36.6175221},"name":"성화열린약국","phone":"043-233-8207"},
  {"address":"전라남도 여수시 여서로 158, (여서동)","location":{"x":127.6991101,"y":34.747919},"name":"세계로약국","phone":"061-653-9777"},
  {"address":"서울특별시 강남구 헌릉로569길 27, 2층 (세곡동)","location":{"x":127.09879,"y":37.466796},"name":"세곡온누리약국","phone":"070-8828-7963"},
  {"address":"대전광역시 서구 둔산로 34, 102호 (둔산동, 씨엔씨타워)","location":{"x":127.3775287,"y":36.3513773},"name":"세란약국","phone":"042-486-0214"},
  {"address":"경기도 부천시 길주로 118, 3층 (상동, 홈플러스부천상동점)","location":{"x":126.7551956,"y":37.5041313},"name":"세븐웰약국","phone":"032-328-8703"},
  {"address":"서울특별시 성북구 동소문로20가길 51 (동선동1가, 수국빌딩)","location":{"x":127.0187903,"y":37.5937317},"name":"세원약국","phone":"02-922-6060"},
  {"address":"서울특별시 영등포구 여의대방로 197, (신길동)","location":{"x":126.9128557,"y":37.5108397},"name":"세종로약국","phone":"02-846-0072"},
  {"address":"부산광역시 수영구 광안해변로277번길 3, (민락동)","location":{"x":129.1239997,"y":35.1560368},"name":"세종약국","phone":"051-758-4915"},
  {"address":"충청남도 천안시 동남구 서부대로 276 , 101호 (신방동)","location":{"x":127.1293511,"y":36.792686},"name":"세종약국","phone":"041-579-3675"},
  {"address":"서울특별시 중랑구 중랑역로 21  (중화동)","location":{"x":127.0759392,"y":37.5958889},"name":"세화당약국","phone":"02-434-8794"},
  {"address":"제주특별자치도 제주시 구좌읍 세화10길 1","location":{"x":126.8587625,"y":33.5208295},"name":"세화약국","phone":"064-784-8442"},
  {"address":"인천광역시 계양구 계산새로 93, 103호 (용종동,밀레니엄프라자)","location":{"x":126.7385493,"y":37.5380896},"name":"센타약국","phone":"032-552-1168"},
  {"address":"경기도 의정부시 행복로 32, 1층 (의정부동)","location":{"x":127.0499587,"y":37.7414166},"name":"센터약국","phone":"031-842-3600"},
  {"address":"경기도 의정부시 시민로 80, 센트럴타워 1층 106호 (의정부동)","location":{"x":127.0435891,"y":37.7380334},"name":"센트럴약국","phone":"031-870-1999"},
  {"address":"서울특별시 마포구 양화로 72, 1층 118호 (서교동)","location":{"x":126.9167221,"y":37.5507977},"name":"셀약국","phone":"02-337-7959"},
  {"address":"경기도 안산시 단원구 고잔로 108, 대동조이월드 129-2호 (고잔동)","location":{"x":126.8380276,"y":37.3185349},"name":"솔솔약국","phone":"031-401-7622"},
  {"address":"서울특별시 영등포구 도신로 88, (신길동)","location":{"x":126.9021379,"y":37.5068593},"name":"송\u0026김약국","phone":"02-848-6596"},
  {"address":"경기도 포천시 소흘읍 솔모루로 9,","location":{"x":127.1412881,"y":37.8242882},"name":"송우수약국","phone":"031-541-8953"},
  {"address":"경기도 평택시  서정북로  71 (서정동)","location":{"x":127.0574132,"y":37.0708553},"name":"송탄온누리약국","phone":"031-662-1102"},
  {"address":"서울특별시 송파구 송파대로 111, 하비오길 송파대로202동 161호 (문정동, 파크하비오)","location":{"x":127.1245415,"y":37.480576},"name":"송파24약국","phone":"02-400-1502"},
  {"address":"서울특별시 송파구 송파대로 141, 르피에드 120호 (문정동)","location":{"x":127.1225635,"y":37.4855846},"name":"송파힘찬약국","phone":"02-406-2007"},
  {"address":"경기도 성남시 분당구 내정로173번길 49, 궁전프라자-3 111호 (수내동)","location":{"x":127.1158025,"y":37.3773806},"name":"수내365약국","phone":"070-6787-5979"},
  {"address":"서울특별시 노원구 동일로 1669 (상계동)","location":{"x":127.0548561,"y":37.6774752},"name":"수락프라자약국","phone":"02-935-7523"},
  {"address":"서울특별시 용산구 새창로12길 12 (도원동)","location":{"x":126.9575191,"y":37.5392671},"name":"수복약국","phone":"02-714-0667"},
  {"address":"인천광역시 미추홀구 경인로 344, (주안동)","location":{"x":126.6783298,"y":37.4583863},"name":"수성당약국","phone":"032-866-6181"},
  {"address":"경기도 안양시 만안구 안양로292번길 31, (안양동)","location":{"x":126.9233458,"y":37.3992699},"name":"수암약국","phone":"031-466-6258"},
  {"address":"경상남도 창원시 마산합포구 현동4길 4 (우산동)","location":{"x":128.5593443,"y":35.1594341},"name":"수약국","phone":"055-244-8275"},
  {"address":"서울특별시 강남구 선릉로69길 19  (역삼동, 역삼래미안아파트)","location":{"x":127.0500756,"y":37.497239},"name":"수약국","phone":"02-563-1601"},
  {"address":"경기도 수원시 팔달구 중부대로 20, 1층 (구천동)","location":{"x":127.0187908,"y":37.2748928},"name":"수원제일큰약국","phone":"031-8067-7474"},
  {"address":"서울특별시 강북구 덕릉로 42 (수유동)","location":{"x":127.0182257,"y":37.6340601},"name":"수유프라자약국","phone":"02-985-0071"},
  {"address":"서울특별시 강북구 도봉로 61, 1층 (미아동)","location":{"x":127.0297233,"y":37.6146132},"name":"수종로약국","phone":"02-981-8151"},
  {"address":"서울특별시 송파구 올림픽로 지하 265, 잠실역2호선 B1층 126호 (신천동)","location":{"x":127.1001336,"y":37.5132612},"name":"쉼표약국","phone":"070-8728-0008"},
  {"address":"대구광역시 북구 동암로12길 8, 칠곡홈플러스 1층 (동천동)","location":{"x":128.5559605,"y":35.944848},"name":"스마일약국","phone":"053-322-1897"},
  {"address":"대구광역시 달서구 달구벌대로 1467","location":{"x":128.5274595,"y":35.8494718},"name":"스마일약국","phone":"053-521-7831"},
  {"address":"서울특별시 송파구 백제고분로27길 19 (삼전동)","location":{"x":127.0865316,"y":37.5024754},"name":"시온약국","phone":"02-417-1365"},
  {"address":"서울특별시 강북구 오패산로 413, 1층 (번동, 미니스톱)","location":{"x":127.0261563,"y":37.637438},"name":"시원약국","phone":"02-904-1231"},
  {"address":"경기도 안산시 단원구 원초로 30","location":{"x":126.801763,"y":37.3283596},"name":"시장약국","phone":"031-486-7033"},
  {"address":"경기도 시흥시 정왕대로 210 (정왕동, 이마트 1층)","location":{"x":126.7560722,"y":37.3649059},"name":"시화마트약국","phone":"031-497-4904"},
  {"address":"서울특별시 성동구 광나루로11길 26-1(송정동)","location":{"x":127.0670758,"y":37.5501381},"name":"신라약국","phone":"02-467-1192"},
  {"address":"서울특별시 관악구 남부순환로 지하1614, 신림역 230-106호 (신림동)","location":{"x":126.924613,"y":37.481094},"name":"신림역약국","phone":"070-5046-4033"},
  {"address":"서울특별시 서초구 강남대로97길 17, 1층 (잠원동)","location":{"x":127.0188046,"y":37.5145898},"name":"신사귀족약국","phone":"02-540-5465"},
  {"address":"서울특별시 강남구 도산대로 지하102, 신사역 B1층 104호 (신사동)","location":{"x":126.9053089,"y":37.5890955},"name":"신사역365약국","phone":"070-8864-0704"},
  {"address":"경기도 수원시 팔달구 권광로 187, 1층 (인계동)","location":{"x":127.032396,"y":37.2642643},"name":"신성메디칼약국","phone":"031-234-5335"},
  {"address":"경기도 남양주시 홍유릉로248번길 39, 122, 123호 (금곡동, 다남프라자)","location":{"x":127.2025537,"y":37.627369},"name":"신성약국","phone":"031-595-8363"},
  {"address":"서울특별시 중구 다산로 215, 경북여인숙 1층 (신당동)","location":{"x":127.0148531,"y":37.5624749},"name":"신성약국","phone":"02-2273-1390"},
  {"address":"서울 종로구 종로 126   (종로3가)","location":{"x":126.9917326,"y":37.570063},"name":"신세계약국","phone":"02-945-2636"},
  {"address":"충청북도 청주시 서원구 1순환로1107번길 39 (분평동)","location":{"x":127.4893374,"y":36.6081163},"name":"신세계약국","phone":"043-292-5523"},
  {"address":"전북특별자치도 전주시 완산구 홍산중앙로 46, 1층 102호 (효자동3가)","location":{"x":127.1093666,"y":35.8176226},"name":"신시심야약국","phone":"070-4178-2852"},
  {"address":"경기도 수원시 영통구 삼성로 2 , 1층 (신동)","location":{"x":127.0486488,"y":37.2460774},"name":"신영약국","phone":"031-204-3835"},
  {"address":"서울특별시 관악구 남부순환로172길 1, 1층 (신림동)","location":{"x":126.9256773,"y":37.4834715},"name":"신원약국","phone":"02-838-3373"},
  {"address":"경상남도 양산시 신기로 24 (신기동)","location":{"x":129.0431587,"y":35.3527776},"name":"신일약국","phone":"055-384-6878"},
  {"address":"서울특별시 동작구 흑석로 103 (흑석동)","location":{"x":126.960794,"y":37.5078129},"name":"신중앙약국","phone":"02-822-0443"},
  {"address":"광주광역시 광산구 신창로 70, 1층 (신창동)","location":{"x":126.8374019,"y":35.1915033999999},"name":"신창대형약국","phone":"062-962-2022"},
  {"address":"경기도 시흥시 복지로 55 (대야동)","location":{"x":126.7894584,"y":37.444341},"name":"신천그랜드약국","phone":"031-312-0993"},
  {"address":"경기도 시흥시 수인로 3372, 신천프라자 (신천동)","location":{"x":126.7842975,"y":37.4411022},"name":"신천프라자약국","phone":"031-404-9311"},
  {"address":"서울특별시 서대문구 신촌로 121, 아남오피스텔 1층 103호 (창천동)","location":{"x":126.9392858,"y":37.5562458},"name":"신촌대로약국","phone":"02-6346-2882"},
  {"address":"대전광역시 대덕구 대덕대로1470번길 68 (목상동)","location":{"x":127.4115615,"y":36.4464019},"name":"신탄약국","phone":"042-932-1155"},
  {"address":"서울특별시 중구 청계천로 298  (신당동)","location":{"x":127.0115818,"y":37.5694329},"name":"신평화약국","phone":"02-2233-2587"},
  {"address":"부산광역시 부산진구 가야대로 761, 1층 (부전동)","location":{"x":129.0548769,"y":35.1578911},"name":"신현대약국","phone":"051-802-4605"},
  {"address":"경상북도 포항시 남구 상대로 79, 1층 (상도동)","location":{"x":129.355743,"y":36.0152487999999},"name":"쌍사약국","phone":"054-272-1004"},
  {"address":"충청남도 천안시 서북구 충무로 155 (쌍용동, 우리척병원)","location":{"x":127.1224079,"y":36.8006931},"name":"쌍용부광약국","phone":"041-576-6770"},
  {"address":"강원특별자치도 영월군 한반도면 쌍용로 77-6,","location":{"x":128.3183863,"y":37.1824509},"name":"쌍용약국","phone":"033-372-8437"},
  {"address":"서울특별시 동작구 흑석로 108, 1~2층 (흑석동)","location":{"x":126.961344,"y":37.5080446},"name":"씨에이(CA)정문약국","phone":"02-825-1122"},
  {"address":"경상남도 창원시 성산구 마디미서로 54, 102호 (상남동,미래클리닉)","location":{"x":128.6809099,"y":35.2208595},"name":"아나파약국","phone":"055-266-0654"},
  {"address":"세종특별자치시 보듬3로 143, 대영프라자 102호 (아름동)","location":{"x":127.243696,"y":36.5115351},"name":"아람약국","phone":"044-862-5265"},
  {"address":"서울특별시 은평구 통일로 855-8, (갈현동, 연신내진원와이타운)","location":{"x":126.9201953,"y":37.6190571},"name":"아름다운달과별약국","phone":"02-3157-2088"},
  {"address":"충청북도 청주시 청원구 주성로 273 (주성동)","location":{"x":127.503897,"y":36.6809162},"name":"아이약국","phone":"043-221-8275"},
  {"address":"경기도 남양주시 다산중앙로 105-8, 성산플레이스4차 102,103호 (다산동)","location":{"x":127.1529014,"y":37.6227133},"name":"아이원약국","phone":"031-568-8988"},
  {"address":"제주특별자치도 제주시 노연로 80, 메종글래드 제주 지하중1층 (연동)","location":{"x":126.4886305,"y":33.4851246},"name":"아주약국","phone":"064-744-2688"},
  {"address":"충청북도 충주시 국원대로 184","location":{"x":127.9286973,"y":36.9879831},"name":"안재경약국","phone":"043-847-3363"},
  {"address":"서울특별시 강남구 압구정로29길 65, 442빌딩 지하1층 (압구정동)","location":{"x":127.0270157,"y":37.5317386},"name":"압구정예주약국","phone":"02-545-3819"},
  {"address":"경기도 용인시 수지구 대지로 20, 죽전빌딩 101, 102호 (죽전동)","location":{"x":127.1123098,"y":37.3269919},"name":"앞서가는 21세기 약국","phone":"031-266-5235"},
  {"address":"서울특별시 관악구 관악로 174, 102호 (봉천동)","location":{"x":126.9529295,"y":37.4806412},"name":"애프터팜 윤약국","phone":"050-71359-2927"},
  {"address":"서울특별시 강남구 테헤란로 339, 1층 (역삼동)","location":{"x":127.0486123,"y":37.5048031},"name":"약사랑약국","phone":"02-2039-9112"},
  {"address":"전북특별자치도 익산시 함열읍 함열중앙로 7","location":{"x":126.9584141,"y":36.0794031},"name":"약손약국","phone":"063-861-1033"},
  {"address":"서울특별시 동작구 장승배기로 7 (상도동)","location":{"x":126.9434092,"y":37.499314},"name":"약수태평양약국","phone":"02-812-7088"},
  {"address":"서울특별시 강남구 도산대로 122, 에메랄드타워 1층 (논현동)","location":{"x":127.0221345,"y":37.5168518},"name":"에메랄드약국","phone":"02-3443-0991"},
  {"address":"경기도 용인시 기흥구 용구대로 2457 , 1층 (보정동)","location":{"x":127.1050484,"y":37.3050684},"name":"에버그린약국","phone":"031-282-3298"},
  {"address":"전북특별자치도 전주시 덕진구 세병서로 10, 102호 (송천동2가)","location":{"x":127.1231073,"y":35.8716949},"name":"에코참약국","phone":"063-715-1684"},
  {"address":"부산광역시 해운대구 달맞이길 30, 포디움동 2013~2014호 (중동, 엘시티)","location":{"x":129.1689356,"y":35.1602243},"name":"엘시티2층365하나약국","phone":"051-741-2301"},
  {"address":"서울특별시 영등포구 여의대방로 375, 109호(여의도동,아일렉스타워)","location":{"x":126.9307807,"y":37.518858},"name":"여의도씨티약국","phone":"02-784-8285"},
  {"address":"경기도 수원시 팔달구 덕영대로 899, 세진브론즈빌 2층 211호 (매산로1가)","location":{"x":127.0000869,"y":37.268155},"name":"역전약국","phone":"031-245-3521"},
  {"address":"서울특별시 마포구 양화로21길 31  (동교동)","location":{"x":126.9244803,"y":37.5594886},"name":"연남약국","phone":"02-336-1533"},
  {"address":"인천광역시 연수구 먼우금로 190, 연수프라자 1층 109,110호 (연수동)","location":{"x":126.6766699,"y":37.4140203},"name":"연수버들약국","phone":"070-7543-8331"},
  {"address":"서울특별시 광진구 아차산로29길 12","location":{"x":127.0684696,"y":37.5414458},"name":"연진약국","phone":"02-462-3355"},
  {"address":"경기도 안양시 동안구 비산로52번길 20","location":{"x":126.9329234,"y":37.4016553},"name":"열린마트약국","phone":"031-468-1662"},
  {"address":"충청북도 청주시 흥덕구 오송읍 오송생명로 194 (오송랜드 103호)","location":{"x":127.3304825,"y":36.6308054},"name":"열린약국","phone":"043-232-0277"},
  {"address":"인천광역시 미추홀구 토금남로 55","location":{"x":126.6384838,"y":37.4506912},"name":"열린연세약국","phone":"032-882-7749"},
  {"address":"경기도 용인시 기흥구 죽전로 49, 씨티프라자 302호 (보정동)","location":{"x":127.114266,"y":37.3207478},"name":"열한시약국","phone":"0507-1418-5555"},
  {"address":"전북특별자치도 전주시 덕진구 매봉로 29-1 (금암동)","location":{"x":127.141104,"y":35.8406619},"name":"염약국","phone":"063-278-7989"},
  {"address":"부산광역시 서구 대영로 65-1","location":{"x":129.0183887,"y":35.110383},"name":"영광약국","phone":"051-247-7989"},
  {"address":"대전광역시 유성구 반석로 23, 1층 104호 (반석동, 제일프라자)","location":{"x":127.3121677,"y":36.3913126},"name":"영광종로약국","phone":"042-931-6375"},
  {"address":"경상북도 경산시 대학로 285 (대동)","location":{"x":128.7529962,"y":35.8313946},"name":"영대정문약국","phone":"053-811-5354"},
  {"address":"경기도 안산시 상록구 용신로 382, 105~106호 (본오동, 상경빌딩)","location":{"x":126.8642936,"y":37.3013707},"name":"영동약국","phone":"031-418-3112"},
  {"address":"제주특별자치도 제주시 조천읍 신북로 510-1","location":{"x":126.6643601,"y":33.5421146},"name":"영재약국","phone":"064-783-1959"},
  {"address":"인천광역시 중구 하늘중앙로 193, 조양타워 108,109호 (중산동)","location":{"x":126.5606395,"y":37.4903756},"name":"영종제일태평양약국","phone":"032-751-2200"},
  {"address":"경상북도 영주시 대학로 323 (가흥동)","location":{"x":128.6048111,"y":36.8242584},"name":"영주대학로약국","phone":"054-638-1266"},
  {"address":"경상북도 포항시 북구 장량로 32 (장성동)","location":{"x":129.3836633,"y":36.0824195},"name":"영천온누리약국","phone":"070-4233-7000"},
  {"address":"전라남도 순천시 해룡면 신대로 116","location":{"x":127.5492351,"y":34.9338165},"name":"오가네약국","phone":"061-724-5505"},
  {"address":"서울특별시 동대문구 이문로9길 105-13, T01호 (이문동, 이문 월드메르디앙 힐트리움 더 테라스)","location":{"x":127.0565399,"y":37.5968111},"name":"오래하는약국","phone":"070-8869-6110"},
  {"address":"전라남도 여수시 시청로 34  (학동)","location":{"x":127.6641685,"y":34.7637392},"name":"오렌지 은 약국","phone":"061-685-9400"},
  {"address":"대전광역시 중구 계룡로 809, 1층 (용두동, 동성빌딩)","location":{"x":127.4066526,"y":36.3277735},"name":"오룡대형약국","phone":"042-222-0666"},
  {"address":"제주특별자치도 제주시 삼무로 18, 제주연동 하우스디어반 105호 (연동)","location":{"x":126.4886767,"y":33.4896128},"name":"오름아래약국","phone":"064-805-2093"},
  {"address":"인천광역시 동구 봉수대로 82","location":{"x":126.6605641,"y":37.4830903},"name":"오메가약국","phone":"032-574-7533"},
  {"address":"충청북도 청주시 흥덕구 오송읍 오송생명로 168, 101호","location":{"x":127.3277738,"y":36.6317721},"name":"오송이화약국","phone":"043-235-2977"},
  {"address":"충청북도 청주시 흥덕구 오송읍 오송생명로 186","location":{"x":127.3296026,"y":36.6311085},"name":"오송프라자약국","phone":"043-237-5590"},
  {"address":"경상남도 밀양시 중앙로 289, (삼문동)","location":{"x":128.7531598,"y":35.4896862},"name":"오약국","phone":"055-354-8607"},
  {"address":"서울특별시 관악구 시흥대로 560, 1층 (신림동)","location":{"x":126.9020245,"y":37.4829132},"name":"온누리대산약국","phone":"02-853-4967"},
  {"address":"울산광역시 중구 손골4길 6, 1층 (복산동)","location":{"x":129.3260594,"y":35.5635977},"name":"온누리동광약국","phone":"052-296-6786"},
  {"address":"서울특별시 성북구 돌곶이로22길 49 (석관동)","location":{"x":127.0606503,"y":37.6107301},"name":"온누리민우약국","phone":"02-969-4582"},
  {"address":"경기도 안성시 공도읍 진사길 34","location":{"x":127.1387492,"y":36.9899214},"name":"온누리우주약국","phone":"031-651-7997"},
  {"address":"광주광역시 남구 서문대로654번길 4, 1층 (진월동)","location":{"x":126.8991448,"y":35.117363},"name":"온누리이화당약국","phone":"062-672-5511"},
  {"address":"경상북도 포항시 남구 청림서길 11-1  (청림동)","location":{"x":129.4122594,"y":35.9954304},"name":"온누리자모약국","phone":"054-292-4521"},
  {"address":"전북특별자치도 익산시 서동로 112 (동산동)","location":{"x":126.9679725,"y":35.9295263},"name":"올리브약국","phone":"063-856-5677"},
  {"address":"경기도 수원시 팔달구 정조로 784, 1층 (팔달로2가)","location":{"x":127.0169536,"y":37.2784014},"name":"옵티마 청운약국","phone":"031-241-7788"},
  {"address":"충청북도 청주시 상당구 월평로184번길 5 (용암동)","location":{"x":127.5046651,"y":36.6098475999999},"name":"옵티마청주제일약국","phone":"043-294-0188"},
  {"address":"인천광역시 중구 공항로 272 (운서동, 인천국제공항여객터미널 3층)","location":{"x":126.4409139,"y":37.4794888},"name":"옵티마프라자약국","phone":"032-743-6789"},
  {"address":"경기도 하남시 신장로 156, 107,108호 (덕풍동, 하남프라자)","location":{"x":127.2019559,"y":37.5399594},"name":"옵티마하남약국","phone":"031-791-2389"},
  {"address":"경기도 남양주시 와부읍 덕소로 94","location":{"x":127.21206,"y":37.5857995},"name":"와부약국","phone":"031-577-7949"},
  {"address":"서울특별시 광진구 자양로 194, (구의동)","location":{"x":127.0854568,"y":37.5448313},"name":"완미약국","phone":"02-457-3583"},
  {"address":"서울특별시 강남구 학동로 106","location":{"x":127.0225961,"y":37.511138},"name":"왕성약국","phone":"02-547-4561"},
  {"address":"서울특별시 동대문구 휘경로 10, 1층 (이문동)","location":{"x":127.0610305,"y":37.595921},"name":"외대조은약국","phone":"02-960-4983"},
  {"address":"경기도 용인시 기흥구 신구로12번길 12 (신갈동)","location":{"x":127.1107462,"y":37.2733778},"name":"용인강남약국","phone":"031-283-5453"},
  {"address":"경기도 용인시 처인구 백옥대로1068번길 1, (김량장동)","location":{"x":127.2100415,"y":37.231092},"name":"용인태평양약국","phone":"031-336-3292"},
  {"address":"인천광역시 부평구 열우물로50번길 9-2 (십정동)","location":{"x":126.7008681,"y":37.473177},"name":"용한약국","phone":"032-424-4732"},
  {"address":"경기도 파주시 파주읍 혜음로 1689 , 용화당 약국","location":{"x":126.8400034,"y":37.8285836},"name":"용화당약국","phone":"031-953-8792"},
  {"address":"경기도 여주시 세종로 73","location":{"x":127.6355542,"y":37.2913164},"name":"우리들약국","phone":"031-885-5121"},
  {"address":"전북특별자치도 전주시 덕진구 권삼득로 303, 1층 (금암동)","location":{"x":127.1363766,"y":35.8409453},"name":"우리들약국","phone":"063-901-9128"},
  {"address":"서울특별시 강동구 올림픽로 781, (암사동)","location":{"x":127.1275517,"y":37.5510138},"name":"우리들약국","phone":"02-427-0012"},
  {"address":"부산광역시 기장군 정관읍 정관중앙로 56, 프라임빌딩 1층 101호","location":{"x":129.1796159,"y":35.3217181},"name":"우리온누리약국","phone":"051-728-2674"},
  {"address":"경기도 고양시 일산동구 위시티로 34, 1층 일부호 (식사동)","location":{"x":126.8091179,"y":37.6754129},"name":"우리온누리약국","phone":"031-969-9004"},
  {"address":"충청북도 청주시 흥덕구 가로수로 1317 (복대동, 서울아동병원)","location":{"x":127.4399002,"y":36.6330111},"name":"우리윤약국","phone":"043-233-0123"},
  {"address":"경기도 가평군 가평읍 가화로 155-19 (우림약국)","location":{"x":127.5105765,"y":37.8329286},"name":"우림약국","phone":"031-582-5661"},
  {"address":"대구광역시 서구 통학로48길 44 (비산동)","location":{"x":128.5677859,"y":35.8812109},"name":"원고개약국","phone":"053-558-3711"},
  {"address":"강원특별자치도 원주시 서원대로 174, (단계동)","location":{"x":127.9307499,"y":37.3438985},"name":"원주대문약국","phone":"033-763-6342"},
  {"address":"강원특별자치도 원주시 호저면 원문로 691","location":{"x":127.8972462,"y":37.3499244},"name":"원주대형약국","phone":"033-733-1065"},
  {"address":"서울특별시 노원구 석계로 104, 그린빌딩 101,102호 (월계동)","location":{"x":127.0606552,"y":37.6231526},"name":"월계365약국","phone":"02-6091-3957"},
  {"address":"대구광역시 달서구 조암로 32, 신월성미소지움 116호 (월성동)","location":{"x":128.5264538,"y":35.8252236},"name":"월성사랑약국","phone":"053-635-7300"},
  {"address":"서울특별시 중구 명동10길 51, 나인트리호텔 1층 (충무로2가)","location":{"x":126.9859953,"y":37.5615086},"name":"웰니스약국","phone":"02-3789-5088"},
  {"address":"경기도 안양시 동안구 평촌대로 131, 101호 (호계동, 아카데미센터)","location":{"x":126.9592483,"y":37.3836917},"name":"웰빙프라자약국","phone":"031-381-8284"},
  {"address":"경기도 성남시 수정구 위례서일로 18, 102, 103호 (창곡동, 더존메디칼타워)","location":{"x":127.1378325,"y":37.4651167},"name":"위례수약국","phone":"031-756-0365"},
  {"address":"경기도 성남시 수정구 위례광장로 322, 아이플렉스 1층 119호 (창곡동)","location":{"x":127.1426313,"y":37.4717444},"name":"위례진약국","phone":"031-754-5082"},
  {"address":"경기도 안산시 상록구 본삼로 38, 3동 105호 (본오동, 월드상가)","location":{"x":126.8633134,"y":37.3006551},"name":"위성숙모어모아새한양약국","phone":"031-407-5823"},
  {"address":"서울특별시 서초구 방배중앙로 167, (방배동)","location":{"x":126.986052,"y":37.4939085},"name":"유경약국","phone":"02-591-5027"},
  {"address":"충청북도 청주시 청원구 율봉로175번길 10-4  (율량동)","location":{"x":127.4888131,"y":36.6691186},"name":"율량큰사랑약국","phone":"043-211-0926"},
  {"address":"제주특별자치도 제주시 노형로 376, 1층 (노형동)","location":{"x":126.476152,"y":33.4834359},"name":"으뜸약국","phone":"064-749-0003"},
  {"address":"충청남도 천안시 서북구 직산읍 자은가리1길 68, 상가동 104호 (우성아파트)","location":{"x":127.1271418,"y":36.8697738},"name":"으뜸약국","phone":"041-588-7574"},
  {"address":"서울특별시 서대문구 명지대3길 1, (남가좌동)","location":{"x":126.9236444,"y":37.5822118},"name":"은하약국","phone":"02-372-1513"},
  {"address":"서울특별시 도봉구 도봉로118길 11 (창동)","location":{"x":127.035904,"y":37.649079},"name":"은혜약국","phone":"02-992-9191"},
  {"address":"경기도 의정부시 진등로 1, 1층 103호 (녹양동)","location":{"x":127.032309,"y":37.7582578},"name":"은혜약국","phone":"031-876-7600"},
  {"address":"경기도 안산시 단원구 중앙대로 397, 1층 (신길동, 이마트트레이더스 신길점)","location":{"x":126.7691931,"y":37.3312441},"name":"이마트약국","phone":"031-492-0615"},
  {"address":"충청북도 충주시 국원대로 187 (금릉동)","location":{"x":127.9220733,"y":36.9992766},"name":"이수약국","phone":"043-851-1644"},
  {"address":"경기도 화성시 동탄순환대로 708, 103호 (영천동, 에듀프라자1)","location":{"x":127.0964375,"y":37.2156575},"name":"이지약국","phone":"031-373-9970"},
  {"address":"충청남도 아산시 배방읍 희망로46번길 45-9, 1층 102호 (정주프라자)","location":{"x":127.1073497,"y":36.7897073},"name":"이진약국","phone":"041-531-9474"},
  {"address":"부산광역시 연제구 연수로 89","location":{"x":129.0813107,"y":35.1761281},"name":"이팜약국","phone":"051-862-7290"},
  {"address":"경기도 안양시 동안구 관악대로 129, 202호 (비산동)","location":{"x":126.9384128,"y":37.3991956},"name":"이화약국","phone":"031-444-3485"},
  {"address":"서울특별시 도봉구 덕릉로 239 (창동)","location":{"x":127.0382553,"y":37.6392173},"name":"이화태평양약국","phone":"02-991-8447"},
  {"address":"경기도 수원시 팔달구 인계로 53","location":{"x":127.0238143,"y":37.2696203},"name":"인계햇살약국","phone":"070-4134-2935"},
  {"address":"서울특별시 강북구 삼각산로 71 (수유동)","location":{"x":127.0122657,"y":37.6401185},"name":"인수약국","phone":"02-993-7378"},
  {"address":"인천광역시 미추홀구 인하로 301-1, (주안동)","location":{"x":126.6817736,"y":37.4481267},"name":"인영약국","phone":"032-429-7561"},
  {"address":"인천광역시 계양구 장제로 789, 1층 (계산동)","location":{"x":126.7341126,"y":37.5384247},"name":"인천제일큰약국","phone":"032-543-5433"},
  {"address":"인천광역시 미추홀구 인하로77번길 6 (용현동)","location":{"x":126.6572264,"y":37.4513305},"name":"인하사랑약국","phone":"032-872-9094"},
  {"address":"인천광역시 미추홀구 인하로 73-1, 1층 우측호 (용현동)","location":{"x":126.6566096,"y":37.4514188},"name":"인하후문약국","phone":"032-225-0103"},
  {"address":"경기도 수원시 권선구 권광로 77, 102호 (권선동)","location":{"x":127.0289663,"y":37.254994},"name":"인화약국","phone":"031-222-7979"},
  {"address":"충청북도 청주시 서원구 모충로12번길 9-13, 1층 5호 (개신동, 한사랑아파트)","location":{"x":127.4665103,"y":36.6247895},"name":"인화약국","phone":"043-263-3770"},
  {"address":"경기도 안산시 단원구 선이로 20, 1층 102호( 내부적)호 (선부동)","location":{"x":126.8028371,"y":37.3426849},"name":"일등365약국","phone":"031-483-1442"},
  {"address":"충청남도 공주시 번영1로 124","location":{"x":127.1411935,"y":36.4740893},"name":"일등약국","phone":"041-858-5533"},
  {"address":"서울특별시 종로구 경교장길 35, 상가동 3148,3149호 (평동, 경희궁자이 3단지)","location":{"x":126.966158,"y":37.5687183},"name":"일등약국","phone":"02-723-7581"},
  {"address":"제주특별자치도 제주시 제원1길 23, 1층 103호 (연동, 뉴제원)","location":{"x":126.4869167,"y":33.4891833},"name":"일품약국","phone":"064-745-5589"},
  {"address":"제주특별자치도 제주시 노연로 90, 1층 (연동)","location":{"x":126.4897152,"y":33.48573},"name":"자연약국","phone":"064-712-1596"},
  {"address":"서울특별시 중구 다산로 90","location":{"x":127.0088746,"y":37.5523023999999},"name":"자연주의약국","phone":"02-2235-0306"},
  {"address":"서울특별시 강남구 삼성로 14, 131호 (개포동, 개포자이 프레지던스)","location":{"x":127.0714351,"y":37.4855370999999},"name":"자이1층엔약국","phone":"02-6080-2349"},
  {"address":"서울특별시 송파구 올림픽로 240, 롯데월드 잠실지하광장 지하도상가 8-2호 (잠실동)","location":{"x":127.1001336,"y":37.5132612},"name":"잠실365약국","phone":"02-417-2119"},
  {"address":"서울특별시 서초구 서초중앙로 38, 정원빌딩 1층 (서초동)","location":{"x":127.0162728,"y":37.4854546},"name":"장수알파약국","phone":"02-3487-4233"},
  {"address":"경상남도 진주시 도동로 211","location":{"x":128.121896,"y":35.1891413},"name":"장안약국","phone":"055-752-2911"},
  {"address":"경상북도 영주시 중앙로 95 (영주동)","location":{"x":128.625113,"y":36.8239196},"name":"장춘당약국","phone":"054-631-2235"},
  {"address":"경상북도 김천시 김천로 31 (평화동)","location":{"x":128.11754,"y":36.1244299},"name":"재창약국","phone":"054-434-2678"},
  {"address":"경기도 성남시 중원구 광명로 372, 1층 (금광동)","location":{"x":127.1671612,"y":37.4464709},"name":"전승완약국","phone":"031-734-6041"},
  {"address":"전북특별자치도 전주시 완산구 백제대로 262 (중화산동2가)","location":{"x":127.1234772,"y":35.8224085},"name":"전주종로약국중화산점","phone":"063-226-7585"},
  {"address":"서울특별시 은평구 진흥로 196","location":{"x":126.93123,"y":37.6084791},"name":"정문온누리약국","phone":"02-549-3003"},
  {"address":"서울특별시 성동구 청계천로10다길 13, 1층 (마장동, 정민하우스)","location":{"x":127.0351648,"y":37.5695799999999},"name":"정민약국","phone":"02-2212-8762"},
  {"address":"부산광역시 동구 정공단로 35, 1층 (좌천동)","location":{"x":129.0546035,"y":35.1358876},"name":"정성약국","phone":"051-631-4298"},
  {"address":"충청남도 서산시 안견로 284, 1층층 (읍내동)","location":{"x":126.4451886,"y":36.7831389},"name":"정약국","phone":"041-667-7584"},
  {"address":"서울특별시 중구 세종대로18길 10, (태평로2가)","location":{"x":126.9776214,"y":37.5637072},"name":"정원약국","phone":"02-755-5866"},
  {"address":"경기도 남양주시 와부읍 덕소로 218, 103,104호 (와부읍)","location":{"x":127.2203969,"y":37.5794836},"name":"정화약국","phone":"031-577-8366"},
  {"address":"경기도 평택시 조개터로42번길 58 (합정동)","location":{"x":127.1058299,"y":36.9901665},"name":"제세온누리약국","phone":"031-651-7714"},
  {"address":"서울특별시 강남구 강남대로 478, 제우빌딩 1층 (논현동)","location":{"x":127.0246713,"y":37.5051069},"name":"제일그랜드약국","phone":"02-546-0093"},
  {"address":"경기도 안성시 중앙로400번길 19, (동본동)","location":{"x":127.2713085,"y":37.006438},"name":"제일당약국","phone":"031-674-1041"},
  {"address":"전북특별자치도 순창군 순창읍 순창로 232,","location":{"x":127.1435504,"y":35.3756629},"name":"제일약국","phone":"063-653-2712"},
  {"address":"제주특별자치도 서귀포시 남원읍 태위로 633","location":{"x":126.7144199,"y":33.2781435},"name":"조광약국","phone":"064-764-4159"},
  {"address":"충청북도 청주시 청원구 충청대로 95, 동학빌딩 1층 (율량동)","location":{"x":127.4929559,"y":36.6651012},"name":"조아약국","phone":"043-211-7963"},
  {"address":"제주특별자치도 제주시 조천읍 신북로 226","location":{"x":126.6371937,"y":33.5359889},"name":"조천약국","phone":"064-783-8989"},
  {"address":"서울특별시 종로구 종로 지하55, 종각지하철역사 152-114호 (종로1가)","location":{"x":126.9945021,"y":37.570262},"name":"종각역약국","phone":"050-71311-0453"},
  {"address":"서울특별시 관악구 신림로 137 (신림동, 조흥빌딩)","location":{"x":126.9340392,"y":37.4711157},"name":"종로늘푸른약국","phone":"28850074"},
  {"address":"경기도 시흥시 정왕대로 220 (정왕동, 우리메디칼센타 106호)","location":{"x":126.7376717,"y":37.3454519},"name":"종로세명약국","phone":"031-431-4044"},
  {"address":"경기도 시흥시 수인로3381번길 32 (신천동)","location":{"x":126.78236,"y":37.438506},"name":"종로약국","phone":"031-314-4719"},
  {"address":"서울특별시 용산구 한강대로23길 55 (한강로3가, 이마트내)","location":{"x":126.9647072,"y":37.5255338},"name":"종로프라자약국","phone":"02-2012-1276"},
  {"address":"서울특별시 도봉구 노해로65길 14-3, 1층 (창동)","location":{"x":127.0467862,"y":37.6520744},"name":"종로프라자약국","phone":"02-907-4266"},
  {"address":"광주광역시 서구 화개1로 57, 1층 14호 (금호동)","location":{"x":126.8549499,"y":35.1291881},"name":"종원종로약국","phone":"062-682-7515"},
  {"address":"경기도 고양시 일산서구 중앙로 1421, NH농협은행 NH금융PLUS 주엽센터 (주엽동)","location":{"x":126.7620068,"y":37.6694246},"name":"주엽1번출구약국","phone":"031-911-3111"},
  {"address":"서울특별시 동대문구 장한로 58, 1층 (장안동)","location":{"x":127.0681135,"y":37.5661188},"name":"중경당약국","phone":"02-2246-1220"},
  {"address":"제주특별자치도 서귀포시 천제연로 200 (중문동)","location":{"x":126.4260847,"y":33.2514872},"name":"중문약국","phone":"064-739-9687"},
  {"address":"경기도 안양시 만안구 안양로 305, 1층 (안양동)","location":{"x":126.920701,"y":37.3991572},"name":"중앙시장약국","phone":"031-465-3317"},
  {"address":"부산광역시 기장군 정관면 정관4로 38, 102호 (금샘프라자)","location":{"x":129.1709897,"y":35.3260946},"name":"중앙약국","phone":"051-728-2210"},
  {"address":"충청북도 진천군 진천읍 중앙동로 61, 1층","location":{"x":127.4446551,"y":36.8554001},"name":"중앙약국","phone":"043-532-2659"},
  {"address":"경기도 부천시 소향로 131, 103호(중동,로하스프라자)","location":{"x":126.7623472,"y":37.5024132},"name":"중앙온누리약국","phone":"032-321-7741"},
  {"address":"광주광역시 서구 시청로 13, 1층 104호 (치평동)","location":{"x":126.8511305,"y":35.1495854},"name":"즐거운약국","phone":"062-373-9453"},
  {"address":"부산광역시 동래구 아시아드대로228번길 26, 화영빌딩 1층 (온천동)","location":{"x":129.0683783,"y":35.2034653},"name":"지리산약국","phone":"051-506-0599"},
  {"address":"전라남도 목포시 옥암로 129, (상동)","location":{"x":126.4243408,"y":34.8100398},"name":"지성약국","phone":"061-984-0196"},
  {"address":"부산광역시 영도구 상리로 1","location":{"x":129.0685503,"y":35.0859653},"name":"지성약국","phone":"051-403-2122"},
  {"address":"대전광역시 서구 월평새뜸로4번길 95, 1층 101호 (월평동)","location":{"x":127.3575038,"y":36.3541086},"name":"지씨지센타약국","phone":"042-487-8871"},
  {"address":"서울특별시 영등포구 영등포로 399-5  (신길동)","location":{"x":126.9222364,"y":37.51386},"name":"지현약국","phone":"02-842-6905"},
  {"address":"서울특별시 강남구 선릉로 424  (대치동)","location":{"x":127.0633458,"y":37.4991887},"name":"진선약국","phone":"02-567-0429"},
  {"address":"서울특별시 도봉구 도봉로 681 (방학동)","location":{"x":127.041037,"y":37.6644997},"name":"진성온누리약국","phone":"02-3494-5177"},
  {"address":"서울특별시 노원구 노해로 452, (상계동)","location":{"x":127.0584277,"y":37.6534875},"name":"진약국","phone":"02-935-8266"},
  {"address":"경상남도 김해시 진영읍 진영로 146","location":{"x":128.7288852,"y":35.3032716},"name":"진영동산약국","phone":"055-343-2460"},
  {"address":"경기도 광주시 곤지암읍 평촌길 36, 극동빌딩 101호","location":{"x":127.3257025,"y":37.3564306},"name":"진하온누리약국","phone":"031-798-1308"},
  {"address":"인천광역시 연수구 경원대로 184, 이마트 3층 (동춘동)","location":{"x":126.6811451,"y":37.4042825},"name":"참사랑약국","phone":"032-811-0500"},
  {"address":"서울특별시 마포구 와우산로 149, 1층 (서교동)","location":{"x":126.9296778,"y":37.5546117},"name":"참약국","phone":"050-71314-2488"},
  {"address":"충청남도 천안시 서북구 충무로 172 (쌍용동)","location":{"x":127.1224079,"y":36.8006931},"name":"참조은약국","phone":"041-572-0002"},
  {"address":"경기도 성남시 분당구 성남대로925번길 16","location":{"x":127.1273267,"y":37.4130943},"name":"참조은약국","phone":"031-725-2274"},
  {"address":"경기도 군포시 삼성로 74, 트레이더스 군포점 1층 (부곡동)","location":{"x":126.9346055,"y":37.3401095},"name":"참좋은약국","phone":"031-395-0365"},
  {"address":"경기도 수원시 팔달구 갓매산로76번길 5","location":{"x":127.0023766,"y":37.2702031},"name":"천경약국","phone":"031-240-0591"},
  {"address":"광주광역시 동구 문화전당로35번길 15, (광산동)","location":{"x":126.91745,"y":35.1452487},"name":"천수당약국","phone":"062-234-8555"},
  {"address":"충청남도 천안시 동남구 쉼1길 42, 천안삼거리휴게소 2동 (삼룡동)","location":{"x":127.1735314,"y":36.7876797},"name":"천안휴게소약국","phone":"041-558-3380"},
  {"address":"경기도 광명시 오리로 857, 1층 (철산동, 일청빌딩)","location":{"x":126.8662052,"y":37.4749051},"name":"철산약국","phone":"02-2612-2342"},
  {"address":"광주광역시 광산구 임방울대로826번길 29-25, 101호 (쌍암동)","location":{"x":126.8500972,"y":35.2162741},"name":"첨단365약국","phone":"062-710-3650"},
  {"address":"경기도 성남시 수정구 성남대로 1330, 1층 104호 (태평동)","location":{"x":127.1271451,"y":37.4484002},"name":"청년약국","phone":"031-8039-7582"},
  {"address":"충청남도 서산시 중앙로 135, 1층 (석림동, 비타민빌딩)","location":{"x":126.4638425,"y":36.7757907},"name":"청담약국","phone":"041-666-2288"},
  {"address":"서울특별시 은평구 가좌로 233, 연희타워 103호 (응암동)","location":{"x":126.9164181,"y":37.5904248},"name":"청룡중앙약국","phone":"02-303-6550"},
  {"address":"제주특별자치도 제주시 중앙로 234, 1층 (이도이동)","location":{"x":126.5394492,"y":33.4953153},"name":"청사약국","phone":"070-7757-7271"},
  {"address":"강원특별자치도 춘천시 금강로 67-1, 1층 (조양동)","location":{"x":127.7291643,"y":37.8793444},"name":"청솔약국","phone":"033-251-3981"},
  {"address":"경기도 안산시 단원구 원포공원1로 46, 1층 (초지동, 이마트안산고잔점)","location":{"x":126.8130208,"y":37.3030918},"name":"청암약국","phone":"031-480-4876"},
  {"address":"서울특별시 구로구 디지털로 227 (가리봉동)","location":{"x":126.8909353,"y":37.4804943},"name":"청와약국","phone":"02-855-1482"},
  {"address":"충청북도 청주시 서원구 남이면 청남로 1808","location":{"x":127.4727759,"y":36.5969672},"name":"청주대형약국","phone":"043-715-3232"},
  {"address":"충청북도 청주시 서원구 사직대로 132, 1층 (사창동)","location":{"x":127.4618002,"y":36.6347295},"name":"청주상당약국","phone":"043-275-7432"},
  {"address":"경기도 남양주시 별내면 청학로114번길 10","location":{"x":127.1146344,"y":37.7090711},"name":"청학약국","phone":"031-841-0554"},
  {"address":"인천광역시 연수구 청능대로 87, 롯데마트 연수점 지하1층 (청학동)","location":{"x":126.6751684,"y":37.4150567},"name":"청학약국","phone":"032-822-3261"},
  {"address":"경기도 안양시 만안구 안양로 323 (안양동)","location":{"x":126.9196162,"y":37.4005259},"name":"초원약국","phone":"031-449-5601"},
  {"address":"인천광역시 연수구 비류대로 429 (연수동)","location":{"x":126.6825158,"y":37.4244371},"name":"최현수약국","phone":"032-814-1333"},
  {"address":"강원특별자치도 춘천시 동면 한솔만천로 18","location":{"x":127.773946,"y":37.8758469},"name":"춘천대형약국","phone":"033-252-7585"},
  {"address":"강원특별자치도 춘천시 동면 서부대성로 464","location":{"x":127.7676735,"y":37.8741911},"name":"춘천태평양대형약국","phone":"033-818-1112"},
  {"address":"충청북도 청주시 서원구 1순환로672번길 41(사창동)","location":{"x":127.4579123,"y":36.6328404},"name":"충대중문약국","phone":"050-71350-3758"},
  {"address":"충청북도 충주시 봉계1길 49","location":{"x":127.9146016,"y":36.9817613},"name":"충주프라자약국","phone":"043-848-5720"},
  {"address":"서울특별시 송파구 올림픽로32길 13 (방이동)","location":{"x":127.1173594,"y":37.5136723},"name":"친절한약국","phone":"02-421-6251"},
  {"address":"경기도 남양주시 도농로 24, 지하1층 101호 (다산동, 부영애시앙상가)","location":{"x":127.1586755,"y":37.6086294},"name":"케어팜약국","phone":"031-555-5543"},
  {"address":"부산광역시 북구 화명대로 40  (화명동)","location":{"x":129.0123729,"y":35.234442},"name":"코오롱약국","phone":"051-363-0089"},
  {"address":"서울특별시 강남구 강남대로 370, 지하1층 (역삼동)","location":{"x":127.0291545,"y":37.4958411},"name":"큰길약국","phone":"25531517"},
  {"address":"충청북도 청주시 상당구 월평로 182 (용암동)","location":{"x":127.5043748,"y":36.6100306},"name":"큰사랑약국","phone":"043-294-8088"},
  {"address":"대전광역시 서구 문정로48번길 70, 1층 (탄방동)","location":{"x":127.384078,"y":36.3436159},"name":"탄방우리약국","phone":"042-486-9911"},
  {"address":"제주특별자치도 제주시 탑동로 24 (삼도이동, 형화빌딩)","location":{"x":126.5225265,"y":33.5175517},"name":"탑동보룡약국","phone":"064-726-4949"},
  {"address":"경상남도 양산시 평산로 11, 101호 (평산동)","location":{"x":129.1537437,"y":35.3813079},"name":"탑약국","phone":"055-384-8381"},
  {"address":"부산광역시 연제구 과정로164번길 9","location":{"x":129.1077705,"y":35.1861991},"name":"태광약국","phone":"051-754-9921"},
  {"address":"전북특별자치도 군산시 대학로 414","location":{"x":126.6890864,"y":35.9578146},"name":"태광약국","phone":"063-463-3571"},
  {"address":"경기도 부천시 부천로 1, 부천역사쇼핑몰 4층 (심곡본동)","location":{"x":126.7828534,"y":37.4840317},"name":"태양약국","phone":"032-667-9700"},
  {"address":"광주광역시 남구 봉선중앙로 51, 103호 (봉선동)","location":{"x":126.9109762,"y":35.1253607},"name":"태종약국","phone":"062-654-9975"},
  {"address":"경기도 화성시 효행로 1069, 1층 105,106호 (진안동, 우성메디아)","location":{"x":127.0436231,"y":37.2152357999999},"name":"태평양약국","phone":"031-222-1413"},
  {"address":"경상남도 통영시 중앙로 334-1, 201호 (무전동)","location":{"x":128.4292012,"y":34.8600843},"name":"통영서울약국","phone":"055-646-8113"},
  {"address":"경기도 고양시 일산서구 중앙로 1426 (주엽동, 일송노블레스 208호일부)","location":{"x":126.7619559,"y":37.6702732},"name":"튼튼약국","phone":"031-917-7582"},
  {"address":"대구광역시 수성구 파동로 250 (파동)","location":{"x":128.6105235,"y":35.8248828},"name":"파동약국","phone":"053-765-3323"},
  {"address":"서울특별시 중구 명동7길 13, 명동증권빌딩 1층 (명동1가)","location":{"x":126.9839701,"y":37.5643532},"name":"판다약국","phone":"02-6080-4977"},
  {"address":"대구광역시 수성구 동대구로 95 (두산동, (홈플러스 대구수성점 지하1층))","location":{"x":128.6232068,"y":35.8388009},"name":"팜플러스약국","phone":"053-766-9114"},
  {"address":"경기도 안양시 동안구 평촌대로 141 (호계동, 트윈프라자 1층)","location":{"x":126.9587599,"y":37.3846016},"name":"평촌종로약국","phone":"031-385-9600"},
  {"address":"경기도 광주시 중앙로 85, 1층 (역동, 신흥빌딩)","location":{"x":127.2593689,"y":37.4073988},"name":"평화약국","phone":"031-768-5952"},
  {"address":"부산광역시 남구 용소로 15, 로티보이까페 1층 (대연동)","location":{"x":129.1009625,"y":35.1359311},"name":"포미약국","phone":"051-924-4242"},
  {"address":"경기도 평택시 포승읍 여술로 37","location":{"x":126.8464349,"y":36.9889276},"name":"포승종로약국","phone":"031-611-5252"},
  {"address":"전라남도 영암군 영암읍 동문로 8","location":{"x":126.7029216,"y":34.7968532},"name":"푸른약국","phone":"061-471-7070"},
  {"address":"서울특별시 강남구 자곡로 172, 1층 122호 (자곡동)","location":{"x":127.1051003,"y":37.4774},"name":"프라임365약국","phone":"02-3434-2277"},
  {"address":"대전광역시 서구 문예로 19, 스카이빌딩 1층 (탄방동)","location":{"x":127.389846,"y":36.3484097},"name":"프라자약국","phone":"042-477-0222"},
  {"address":"충청남도 천안시 서북구 동서대로 65 (두정동, 두정이진병원,이수병원)","location":{"x":127.1307199,"y":36.8259477},"name":"프라자약국","phone":"041-561-8119"},
  {"address":"경기도 수원시 권선구 수인로 291, 1층 (구운동, 서수원터미널)","location":{"x":126.969908,"y":37.282142},"name":"프라자약국","phone":"031-296-0102"},
  {"address":"경기도 부천시 원미구 부천로10번길 14, 1층일부 (심곡동)","location":{"x":126.7836806,"y":37.4850031},"name":"프라자온누리약국","phone":"032-207-7573"},
  {"address":"대구광역시 수성구 동대구로 95","location":{"x":128.6232068,"y":35.8388009},"name":"플러스약국","phone":"053-766-9114"},
  {"address":"전라남도 순천시 연향중앙상가길 29, (연향동)","location":{"x":127.5201275,"y":34.9510466},"name":"하나로약국","phone":"061-723-0313"},
  {"address":"경기도 시흥시 장곡로37번길 16 (장곡동)","location":{"x":126.7844036,"y":37.3780845},"name":"하나약국","phone":"031-318-4613"},
  {"address":"제주특별자치도 제주시 연북로 99, 1층 (연동, 365빌딩)","location":{"x":126.4920391,"y":33.4821825},"name":"하나약국","phone":"647482800"},
  {"address":"인천광역시 중구 하늘달빛로 84, 파크원 105호 (중산동)","location":{"x":126.5581627,"y":37.4867592},"name":"하늘365약국","phone":"032-751-0365"},
  {"address":"경기도 광명시 오리로 351, 1층 (소하동)","location":{"x":126.8790808,"y":37.4340676},"name":"하늘약국","phone":"02-898-7290"},
  {"address":"광주광역시 북구 첨단연신로 105","location":{"x":126.8640267,"y":35.207335},"name":"하늘온누리약국","phone":"062-575-5690"},
  {"address":"서울특별시 노원구 한글비석로 410, 1층 (상계동)","location":{"x":127.0712436,"y":37.6612689},"name":"하님약국","phone":"02-939-1827"},
  {"address":"대전광역시 대덕구 대전로 1119 (오정동)","location":{"x":127.4148928,"y":36.354488},"name":"하선약국","phone":"042-621-7770"},
  {"address":"경기도 광명시 범안로 1043 (하안동, 원촌빌딩 1층)","location":{"x":126.8786488,"y":37.4623236},"name":"하안종로약국","phone":"02-805-8275"},
  {"address":"경기도 부천시 경인로 240 (심곡본동)","location":{"x":126.7798295,"y":37.4783688},"name":"한결약국","phone":"032-663-1979"},
  {"address":"서울특별시 종로구 동숭길 52","location":{"x":127.0044371,"y":37.5805746},"name":"한독약국","phone":"02-762-4636"},
  {"address":"제주특별자치도 제주시 월랑로 33, 1층 (노형동, 한라빌딩)","location":{"x":126.4760791,"y":33.4885524},"name":"한라약국","phone":"064-712-7364"},
  {"address":"제주특별자치도 서귀포시 천제연로 210-1, (중문동)","location":{"x":126.427059,"y":33.2514763},"name":"한마음약국","phone":"064-739-0381"},
  {"address":"경기도 수원시 팔달구 매산로 18, (매산로1가)","location":{"x":126.9998913,"y":37.2661683},"name":"한빛약국","phone":"031-242-2778"},
  {"address":"대구광역시 중구 중앙대로 386-1, 1층 (동성로3가)","location":{"x":128.5938404,"y":35.8674501},"name":"한성약국","phone":"053-425-5575"},
  {"address":"경상남도 양산시 평산로 35 (평산동)","location":{"x":129.1510141,"y":35.3815454},"name":"한솔약국","phone":"055-367-6555"},
  {"address":"서울특별시 영등포구 영등포로 250-1 (영등포동3가)","location":{"x":126.9091062,"y":37.5188559},"name":"한시까지약국","phone":"02-2632-7700"},
  {"address":"경기도 안산시 상록구 석호로 294, 1층 (본오동)","location":{"x":126.8632657,"y":37.2933464},"name":"한양온누리약국","phone":"031-362-6551"},
  {"address":"경기도 수원시 영통구 영통로 151 (망포동)","location":{"x":127.0520174,"y":37.2402889},"name":"한우리약국","phone":"031-205-4194"},
  {"address":"대구광역시 중구 국채보상로 598, (동성로2가)","location":{"x":128.5956197,"y":35.8700613},"name":"한일약국","phone":"053-424-4664"},
  {"address":"서울특별시 마포구 양화로 지하45, 합정역 B1층 109호 (합정동)","location":{"x":126.9139908,"y":37.5495753},"name":"합정스타약국","phone":"02-323-0202"},
  {"address":"경기도 평택시 조개터로42번길 60-1 (합정동)","location":{"x":127.1061018,"y":36.9901148},"name":"합정약국","phone":"031-651-3241"},
  {"address":"전라남도 해남군 해남읍 중앙1로 2-14, 103호 (해남읍)","location":{"x":126.6076006,"y":34.5718145},"name":"해남온누리약국","phone":"061-535-7506"},
  {"address":"경상남도 사천시 사천읍 선평길 17","location":{"x":128.091396,"y":35.0801521},"name":"해뜨는약국","phone":"055-855-0717"},
  {"address":"경기도 안양시 동안구 엘에스로 45, 110호 (호계동, 대영골든타워)","location":{"x":126.9547274,"y":37.3674198},"name":"해맑은약국","phone":"031-456-3134"},
  {"address":"전북특별자치도 군산시 문화로 37, 1층 (문화동, 대한빌딩)","location":{"x":126.7099108,"y":35.9700861},"name":"해맑은약국","phone":"063-466-8275"},
  {"address":"경기도 수원시 권선구 금곡로 112, 이수프라자 3층 303호 (금곡동)","location":{"x":126.9425406,"y":37.2739425},"name":"해바라기약국","phone":"031-298-3055"},
  {"address":"전라남도 해남군 해남읍 남부순환로 5, 정하메디컬센터 1층 101호","location":{"x":126.6073933,"y":34.5703488},"name":"해오름약국","phone":"061-537-2500"},
  {"address":"광주광역시 남구 양림로 38 (양림동)","location":{"x":126.9132212,"y":35.136545},"name":"해오름온누리약국","phone":"062-654-9933"},
  {"address":"부산광역시 해운대구 좌동순환로 511","location":{"x":129.1673666,"y":35.166017},"name":"해운대이팜약국","phone":"051-744-4855"},
  {"address":"서울특별시 강동구 천호대로157길 54, 1층 (천호동)","location":{"x":127.1279603,"y":37.5400174},"name":"행복나무약국","phone":"02-487-8880"},
  {"address":"강원특별자치도 속초시 동해대로 4163, 1층 (조양동)","location":{"x":128.5793845,"y":38.1909018},"name":"행복약국","phone":"033-637-2825"},
  {"address":"서울특별시 성북구 보문로34길 59, 1층(동선동1가)","location":{"x":127.0185932,"y":37.5911288},"name":"행복한약국","phone":"02-927-8253"},
  {"address":"강원특별자치도 강릉시 구정면 범일로 442","location":{"x":128.8790566,"y":37.7270915},"name":"행복한약국","phone":"033-644-0073"},
  {"address":"경기도 성남시 분당구 정자일로198번길 15, 109호 (정자동, 제나프라자)","location":{"x":127.1076817,"y":37.367673},"name":"행복한온누리약국","phone":"031-714-0288"},
  {"address":"서울특별시 종로구 대명길 21-2(명륜4가)","location":{"x":127.0003645,"y":37.5832313},"name":"행운약국","phone":"02-765-9997"},
  {"address":"경기도 고양시 덕양구 향기로 58, 지하1층 B02호 (향동동)","location":{"x":126.892359,"y":37.5951571},"name":"향동중앙약국","phone":"02-3159-7575"},
  {"address":"대전광역시 서구 도솔로 313, (괴정동)","location":{"x":127.3823541,"y":36.3364278},"name":"허룡약국","phone":"042-525-5050"},
  {"address":"서울특별시 송파구 올림픽로12길 5, 정호빌딩 (잠실동)","location":{"x":127.0831031,"y":37.5110674},"name":"헬로팜약국","phone":"02-415-1121"},
  {"address":"경기도 의정부시 청사로 45, 108호 (금오동, 플래티넘프라자)","location":{"x":127.0696035,"y":37.752244},"name":"현대약국","phone":"031-851-1688"},
  {"address":"서울특별시 서대문구 연세로 29-1, 1층 (창천동)","location":{"x":126.9367539,"y":37.5583285},"name":"현우약국","phone":"02-334-3979"},
  {"address":"제주특별자치도 제주시 한림읍 한림로 650","location":{"x":126.2627728,"y":33.413754},"name":"현재약국","phone":"064-796-9333"},
  {"address":"대구광역시 북구 팔달로 189, 1층일부 (노원동2가)","location":{"x":128.5737652,"y":35.8907242},"name":"형우당약국","phone":"053-358-9696"},
  {"address":"대구광역시 중구 달구벌대로 2207, 105호 (삼덕동2가)","location":{"x":128.6029478,"y":35.8661813},"name":"호두약국","phone":"053-213-3119"},
  {"address":"서울특별시 광진구 동일로30길 28 (화양동)","location":{"x":127.0688639,"y":37.5474876},"name":"호림약국","phone":"02-468-1027"},
  {"address":"서울특별시 송파구 송파대로49길 52, A동 102호 (석촌동)","location":{"x":127.0989735,"y":37.506088},"name":"호수약국","phone":"02-415-8852"},
  {"address":"충청북도 청주시 흥덕구 서부로 1291 (가경동)","location":{"x":127.4345867,"y":36.6283003},"name":"홈플러스준약국","phone":"043-234-7765"},
  {"address":"서울특별시 마포구 와우산로27길 43, 1층 (서교동)","location":{"x":126.9261183,"y":37.5546883},"name":"홍대365약국","phone":"02-3141-1084"},
  {"address":"서울특별시 마포구 어울마당로 128, 1층 (서교동)","location":{"x":126.9242823,"y":37.5557094},"name":"홍대어울림약국","phone":"02-332-9233"},
  {"address":"서울특별시 마포구 어울마당로 62, 1층 (서교동)","location":{"x":126.9214219,"y":37.5505592},"name":"홍대참신한약국","phone":"02-6368-5799"},
  {"address":"서울특별시 마포구 양화로18길 7, 1층 (동교동)","location":{"x":126.9246151,"y":37.5568661},"name":"홍익약국","phone":"02-337-5414"},
  {"address":"제주특별자치도 제주시 노연로 87, 102호 (연동, 연동ABC주상복합)","location":{"x":126.4894674,"y":33.4860637},"name":"홍익한약국","phone":"064-749-8818"},
  {"address":"서울특별시 서대문구 통일로 425, 1층 (홍제동)","location":{"x":126.9457263,"y":37.5870784},"name":"홍제제일약국","phone":"02-379-0345"},
  {"address":"서울특별시 강서구 곰달래로 223, 화곡동상가 104호 (화곡동)","location":{"x":126.8576979,"y":37.5318496},"name":"화곡부성약국","phone":"02-722-7585"},
  {"address":"부산광역시 북구 화명신도시로 120, (화명동)","location":{"x":129.0111525,"y":35.234587},"name":"화명메디칼약국","phone":"051-331-8525"},
  {"address":"서울특별시 송파구 잠실로 지하 156, 잠실광역환승센터 지하1층 101호 (신천동)","location":{"x":127.101169,"y":37.5118983},"name":"환승센터약국","phone":"02-424-2365"},
  {"address":"서울특별시 서대문구 통일로 145-1, (냉천동)","location":{"x":126.9649451,"y":37.5672043},"name":"활명당약국","phone":"02-363-2606"},
  {"address":"경상북도 경산시 하양읍 하양로 46, 1층 103호","location":{"x":128.8146122,"y":35.9096182},"name":"효성약국","phone":"053-854-4487"},
  {"address":"경기도 화성시 동탄지성로 18, 금정프라자 101,102호 (반송동)","location":{"x":127.0714369,"y":37.1975255},"name":"휴베이스윤약국","phone":"3180779975"},
  {"address":"서울특별시 동대문구 고산자로30길 56 (용두동)","location":{"x":127.0413442,"y":37.5754475},"name":"흥명약국","phone":"02-963-0617"},
  {"address":"서울특별시 관악구 쑥고개로 53, 1층 (봉천동)","location":{"x":126.9424173,"y":37.4798149},"name":"희망약국","phone":"02-874-9488"}
]